Site Name,Address,Post Code,Location Type,Ward,Sticker,Postcode area,Site Number,UPRN,Latitude,Longitude,y,x,Recyclables-Mixed Glass,Recyclables-Paper,Recyclables-Textiles,Recyclables Small Electrical,Non LCC Banks,Type,Tally of Sites,Cleaning,No of  Glass Banks,Apr 16 Glass Tonnages Kg,May 16 Glass Tonnages Kg,Jun 16 Glass Tonnages Kg,Jul 16 Glass Tonnages Kg,Aug 16 Glass Tonnages Kg,Sep 16 Glass Tonnages Kg,Oct 16 Glass Tonnages Kg,Nov 16 Glass Tonnages Kg,Dec 16 Glass Tonnages Kg,Jan 17 Glass Tonnages Kg,Feb 17 Glass Tonnages Kg,Mar 17 Glass Tonnages Kg,Apr 17 Glass Tonnages Kg,May 17 Glass Tonnages Kg,Jun 17 Glass Tonnages Kg,Jul 17 Glass Tonnages Kg,Aug 17 Glass Tonnages Kg,Sep 17 Glass Tonnages Kg,Oct 17 Glass Tonnages Kg,Nov 17 Glass Tonnages Kg,Dec 17 Glass Tonnages Kg,Jan 18 Glass Tonnages Kg,Feb 18 Glass Tonnages Kg,Mar 18 Glass Tonnages Kg,04/18 Glass Tonnages Kg,05/18 Glass Tonnages Kg,06/18 Glass Tonnages Kg,07/18 Glass Tonnages Kg,08/18 Glass Tonnages Kg,09/18 Glass Tonnages Kg,10/18 Glass Tonnages Kg,11/18 Glass Tonnages Kg,12/18 Glass Tonnages Kg,01/19 Glass Tonnages Kg,02/19 Glass Tonnages Kg,03/19 Glass Tonnages Kg,Total from Apr 19,12 Month Average
 Armley Conservative Club - Leeds Jazz Club,Armley Ridge Road,LS12 3NU,Social Club,Armley,,LS12,21910,72662636,53.798438,-1.59674,433646,426659,Y,,,,,Glass,1,,1,,,,,,"1,652",,760,572,,597,260,359,,699,,118,382,117,253,323,189,,,531,531,621,816,741,,903,,,651,,,4794,685
Abbey Inn,Pollard Lane,LS13 1EQ,Pub,Bramley and Stanningley,Y,LS13,22312,72158661,53.826684,-1.637747,436774,423942,Y,,,,,Glass,1,,1,267,,665,807,484,407,,660,330,816,527,823,181,560,433,300,709,,,617,105,758,"3,391","2,020","3,488", ,435,478,812,,,509,325,"1,618",342,170,8176,908
Acorn Public House,"Leeds Bradford Road, Bramley",LS13 1NS,Pub,Bramley and Stanningley,Y,LS13,22313,72118188,53.819699,-1.634268,435998,424175,Y,,,,,Glass,1,,1,,198,698,579,274,,376,,390,,,364,,244,325,187,,"1,227",209,577,209,95,210,467,,534,385,213,,"1,109",,218,163,164,256,,3042,380
Adel War Memorial Association,Church Lane,LS16 8DG,Social Club,Adel and Wharfedale,Y,LS16,22314,72564100,53.855966,-1.587172,440050,427252,Y,,,,,Glass,1,,1,"1,014",420,593,,71,653,,751,731,513,527,177,331,660,194,443,475,"1,076",826,"1,863",379,388,,346,666,,0,480,290,239,0,286,164,,210,866,3201,320
Adrian Social Club,Belle Vue Avenue,LS8 2NN,Social Club,Roundhay,Y,LS8,21900,72019451,53.824459,-1.48834,436587,433778,Y,Y,,,,"Glass, Paper",1,,3,"1,448","1,785","2,208","2,539",,"1,561","2,189","1,537","2,781","1,860","2,097",,"2,975",990,"3,111","1,875","1,724","1,063","1,899","2,415","2,694","1,704","3,213","2,360",842,"3,107","2,166","1,040","2,488","1,412",717,"2,345","2,778","3,833",754,594,22076,"1,840"
Adwalton Cricket Club,"Moorside Vale, Dridlington",BD11 1HG,Sports Club,Kippax and Methley,,BD11,21901,72547359,53.751773,-1.654953,428434,422850,Y,,,,,Glass,1,,1,854,348,,,317,,,268,,,337,"2,043",200,,,692,71,,,,,310,,,"3,247",529,0,,,671,,,306,,165,,4919,820
Aireborough Guisley Sport Centre,"St Oswalds Terrace, Guiseley",LS20 9BT,Leisure Centre,Guiseley and Rawdon,Y,LS20,21902,72292763,53.873091,-1.707248,441916,419346,Y,Y,Y,,,"Glass, Paper, Textile",1,,2,"1,499","1,148","1,241","2,060","2,059","1,307","1,585","1,713","2,813","1,731","1,870","1,298","2,169","3,199","2,584","3,276","3,473","1,471","1,610",577,"2,724","2,072","2,861","2,726","3,216","2,630","3,571","3,800","3,231","2,075","3,235",,"5,247","4,305","3,274","3,866",38450,"3,495"
Allied Glass,Haigh Park Road,LS10 1NQ,Business,City and Hunslet,,LS10,22333,72187971,53.786766,-1.528641,432375,431153,Y,,,,,Glass,,,,,,,,,,,,,"1,064",,,,,,,792,,,,,"1,233",,,,"2,630",,,,,,0,,,156,,2786,929
Alwoodley Community Centre,"The Avenue, Alwoodley",LS17 7NZ,Social Club,Alwoodley,Y,LS17,21962,72523636,53.858701,-1.555171,440367,429355,Y,,,,,Glass,1,,1,980,"1,192","1,628","1,151",511,553,"1,064","1,221","2,651","1,829",956,"1,197","1,501","1,571","1,372","1,421","1,489",,,,"1,160","1,818","1,034","1,228","1,845","1,737","1,112","1,904","1,304",,"1,443","1,395","1,726","1,796","1,769","1,633",17664,"1,606"
Anchor Inn,"Victoria Street, Castleford",WF10 2DF,Pub,Kippax and Methley,Y,WF10,21906,72527193,53.743386,-1.367903,427631,441786,Y,,,,,Glass,1,,3,,"1,527","1,262",,,,"1,622","1,622",,"1,596",,"1,345","1,116",829,"2,236",825,"1,344",,,,"1,238",205,,"2,579","1,824","1,845",739,"3,599","2,698",500,738,"2,111",926,"2,384",545,"1,974",19882,"1,657"
Angel Inn,"55 Wakefield Road, Rothwell",LS26 0SF,Pub,Ardsley and Robin Hood,Y,LS26,21907,72373011,53.747997,-1.507937,428071,432547,Y,,,,,Glass,1,,3,"1,617",725,924,,255,764,668,601,,884,177,207,"1,027",103,"2,260",574,"1,015","13,181","14,243","8,342",568,329,170,"1,347",726,186,"17,322",710,"1,006",,,943,820,568,90,940,23311,"2,331"
Archery Road,Archery Road,LS2 9AR,Road Side,Hyde Park and Woodhouse,,LS2,,72666640,53.808231,-1.548826,434755,429808,,,Y,Y,,"Textile, Small Electrical Appliances",,,0,,,,,,,,,,,,,,,,,,,,,,,,,,,,,,,,,,,,,,
Armley Liberal Club,Armley Lodge Road,LS12 2AT,Social Club,Armley,,LS12,21907,72006069,53.79901,-1.587747,433713,427251,Y,,,,,Glass,,,,,,,,,,,,,,,,,,,,,"9,364","11,150","8,864",,,713,,173,90,"14,124",204,,405,114,308,,217,0,,15634,"1,737"
ASDA - Adel,Holt Park,LS16 7RY,Supermarket,Adel and Wharfedale,,LS16,20457,72552152,53.856074,-1.606008,440055,426013,Y,Y,Y,,,"Glass, Paper, Small electrical applicances, Textiles",1,,7,"15,284","13,512","5,828","15,883","14,120","12,794","11,365","16,581","21,162","20,144","15,274","17,045","16,185","16,915",,"17,490","13,736",396,,748,"16,417","18,518","11,887","17,914","18,537","16,026","17,322","20,532","14,947","13,288","14,978","13,100","17,398","19,326","12,574","14,860",192888,"16,074"
ASDA - Killingbeck,Killingbeck Drive,LS14 6UF,Supermarket,Killingbeck and Seacroft,,LS14,20459,72247070,53.806674,-1.476545,434614,434569,Y,,Y,Y,,"Glass, Textile, Small electrical appliances",1,,,"12,734","8,377","9,427","12,196","9,241","8,320","10,587","9,943","17,033","13,743","12,592","11,296","12,240","9,577","13,586","10,708","9,092",336,227,,"10,079","13,081","9,685","11,288","12,706","14,134","12,517","11,936","11,227","9,614","7,700","8,448","14,507","12,695","6,346","9,733",131563,"10,964"
ASDA - Kirkstall,385 Kirkstall Road,LS4 2EZ,Supermarket,Kirkstall,Y,LS4,22127,72565137,53.807124,-1.587181,434616,427283,Y,Y,Y,,,"Glass, Paper, Textile",1,,3,"4,954","5,371","8,038","6,874","7,405","4,200","4,349","6,716","6,938","7,143","5,537","5,123","4,993","4,787","4,961","8,193","3,507","11,413","11,961","7,649","4,017","5,837","4,038","4,826","5,706","4,180","1,396","6,145","3,540","1,967","3,308","3,521","5,116","6,063","3,950","4,112",49004,"4,084"
ASDA - Morley,"Howey Park Road, Morley",LS27 0BN,Supermarket,Morley South,,LS27,20458,72394479,53.735223,-1.61014,426608,425815,Y,Y,Y,,,"Glass, Paper, Textile",1,,,"12,986","13,132","11,211","15,200","11,104","11,947","10,779","13,043","14,346","14,305","12,011","12,661","11,260","13,288","17,808","12,560","12,234","2,233","2,051","1,403","13,095","16,753","12,295","12,197","17,473","10,774","14,124","13,657","12,404","9,887","13,318","11,685","14,294","9,901","7,618","13,613",148748,"12,396"
ASDA - Pudsey,"Owlcotes Shopping Centre, Stanningley By-Pass",LS28 6AR,Supermarket,Calverley and Farsley,,LS28,20456,72557455,53.803682,-1.671503,434204,421732,Y,Y,,,,"Glass, Paper",1,,,"17,426","17,355","12,323","18,969","19,064","14,611","16,539","16,923","16,870","18,950","15,139","16,517","17,077","18,969","17,993","16,462","17,229",511,182,,"16,348","22,503","16,014","15,781","18,861","13,726","17,622","18,452","18,302","17,137","16,420","14,200","36,159","17,032",,"17,107",205018,"18,638"
Back Vicars Road,Shepherds Lane,LS8 4LG,Road Side,Gipton and Harehills,Y,LS8,21912,72183877,53.815432,-1.52067,435568,431657,Y,,,,,Glass,1,,1,,,621,,,136,274,256,183,893,,366,,439,351,60,181,356,,504,274,189,,,779,359,157,160,234,0,0,344,0,597,75,,2706,246
Bay Horse,"Woodhouse Hill Road, Hunslet",LS10 2DN,Pub,City and Hunslet,Y,LS10,21915,72548511,53.772257,-1.530382,430760,431049,Y,,,,,Glass,1,,1,,,,614,603,171,267,354,,617,379,264,353,364,311,264,349,,547,578,,344,,472,,599,615,"1,124",,595,774,616,493,366,580,286,6048,605
Bay Horse Inn,"66 Town Street, Farsley, Pudsey",LS28 5LF,Pub,Pudsey,Y,LS28,,72276260,53.813396,-1.670622,435285,421785,Y,,,,,Glass,1,,1,,,,,,,,,,,,,,,,,,,,,,,,,,,,,,,,,,,,,,
Beechwood WMC,Ramshead Drive,LS14 1BS,Social Club,Killingbeck and Seacroft,Y,LS14,21918,72539505,53.829393,-1.471582,437144,434877,Y,,,,,Glass,1,,1,,,,701,,,,,268,,,275,,,,586,,"2,478","3,423","2,551",491,,,,,,528,,,,294,,,,,,822,411
Beeston Hill Social Club (closed),130 Beeston Road,LS11 8BB,Social Club,Beeston and Holbeck,,LS11,21919,72563694,53.778065,-1.554506,431396,429455,Y,,,,,Glass,1,,3,,402,,"2,873",,,851,,"1,384",980,,191,712,,700,512,,271,196,,774,,,,,,"1,211",,539,,603,,,,"5,578",,7931,"1,983"
Belle Isle WMC,"Town Street, Middleton",LS10 3PE,Social Club,Middleton Park,Y,LS10,21920,72548580,53.754842,-1.527058,428824,431281,Y,,,,,Glass,1,,1,"1,125","1,920","1,922",223,"2,486","1,036","1,169","2,124","1,573","1,633","2,862","1,586","2,284","2,264","1,561","1,705","1,034",,76,,"1,826","2,730","1,593",432,"1,806","2,164","2,418","6,113",925,"1,343",489,"1,064","2,211","2,898","1,378",646,23455,"1,955"
Bennett Road,Bennett Road,LS6 3BA,Road Side,Headingley,,LS6,,72572287,53.820496,-1.577445,436108,427915,,,Y,,,Textile,,,0,,,,,,,,,,,,,,,,,,,,,,,,,,,,,,,,,,,,,,
Bingley Arms,"37 Church Lane, Bardsey",LS17 9DR,Pub,Harewood,,LS17,21922,72388698,53.881582,-1.448349,442962,436361,Y,,,,,Glass,1,,1,"2,602","3,123","3,673","3,005","1,599","2,711","3,331","1,375","4,620","3,874","3,025","3,241","4,000","2,846","4,663","2,935","2,569",686,,827,"3,137","4,476","2,322","2,967","2,864","2,015","4,345","2,987","1,948","2,740","3,499","2,710","3,243","1,075","1,280","4,320",33026,"2,752"
Bird in Hand,"Springmead Drive, Garforth",LS25 1JW,Pub,Garforth and Swillington,Y,LS25,21923,72316625,53.789438,-1.382648,432746,440769,Y,,,,,Glass,1,,1,279,496,,,675,273,297,448,154,272,428,,,,,493,,"3,004","2,780","2,747",139,493,,449,,149,528,,,,0,,266,,,,943,236
Black Bull Inn,"Commercial Street, Rothwell",LS26 0AX,Pub,Rothwell,Y,LS26,21924,72375654,53.748472,-1.475858,428139,434662,Y,,,,,Glass,1,,1,244,,195,74,74,203,239,325,85,175,171,207,368,,171,,,712,"1,059",566,,164,,539,,,"3,458",177,252,,,471,328,0,0,,4686,669
Blands Arms,"Great North Road, Micklefield",LS25 4AQ,Pub,Kippax and Methley,Y,LS25,21925,72322081,53.79412,-1.32729,433300,444411,Y,,,,,Glass,1,,1,479,599,560,508,327,405,636,701,421,544,742,689,476,890,396,575,982,,,,488,329,679,530,569,"1,153",598,,717,351,671,672,370,640,623,329,6692,608
Boston Spa School,"Clifford Moor Road, Boston Spa",LS23 6RW,Educational Facility,Wetherby,Y,LS23,21963,72555408,53.900101,-1.361994,445070,442019,Y,,,,,Glass,1,,1,,,89,,187,,291,187,,,,,"3,375","3,364",,,575,"4,150","3,711","2,766",,,,,,,"7,194",,"1,028",,,,,,,0,8222,"2,741"
Brackenwood Community Centre,Brackenwood Drive,LS8 1RG,Community Centre,Roundhay,Y,LS8,22051,72560195,53.83801,-1.524616,438078,431380,Y,,,,,Glass,1,,2,742,268,"1,576","1,295","1,213",543,"1,094",839,"1,129",856,699,586,,,852,239,883,,,"1,121",,"1,268","1,251",815,779,"1,571","2,024","1,501","1,449","1,217",674,"1,567","2,471","1,811",,,15065,"1,506"
Brackenwood Drive/Bus Turning Circle,Brackenwood Drive,LS8 1SF,Road Side,Roundhay,Y,LS8,22032,72636036,53.832026,-1.522336,437415,431298,Y,,,,,Glass,1,,1,557,791,"1,443",971,910,394,274,590,881,869,556,529,763,"1,324",,714,548,,,,,742,749,980,,"1,242",559,307,,602,92,554,"1,140","1,728",579,"1,068",7870,787
Bramham Primary School,Bramham Road,LS23 6JQ,Educational Facility,Wetherby,Y,LS23,21926,72567765,53.887022,-1.35171,443621,442708,Y,,,,,Glass,1,,2,"4,618","4,089","4,729","5,720",756,"2,292","2,936","3,587","5,469","4,215","3,488","2,886",,,"4,035","4,172","2,727",,547,278,"4,125","4,061","2,673","3,469","2,756","1,521","3,458","3,669","2,998","1,611","2,768","2,732","2,632","1,985","1,760","2,422",30311,"2,526"
Bramley Band Club,Elswick Terrace,LS13 2BG,Social Club,Armley,Y,LS13,21927,72217864,53.808907,-1.623595,434801,424884,Y,,,,,Glass,1,,1,237,496,,635,183,483,752,285,,446,411,,345,244,266,,0,255,,285,984,347,413,234,260,,435,142,,475,"1,032",204,0,509,827,178,4062,406
Bramley WMC,Elder Road,LS13 4BY,Social Club,Pudsey,Y,LS13,21930,72064109,53.804823,-1.631376,434344,424374,Y,,,,,Glass,1,,3,,694,,,824,241,251,190,936,,,548,534,,619,460,,,,,109,568,414,443,,281,464,273,,"1,216",0,116,0,651,634,304,3938,394
British Lending Library,Thorpe Arch,LS23 7BQ,Business,Wetherby,Y,LS23,21934,72393710,53.919742,-1.32142,447280,444664,Y,,,,,Glass,1,,1,,465,,143,,907,,,145,,,,,,460,,164,,717,,,,,,,,"2,101",,,,,,,,,,2101,"2,101"
British Oak Public House,"Westerton Road, East Ardsley",WF3 1AF,Pub,Ardsley and Robin Hood,Y ,WF3,21935,72370410,53.723972,-1.57625,425369,428058,Y,,,,,Glass,1,,1,"2,877","3,513","3,771","3,900","4,698","2,791","2,919","4,623","3,990","4,497","4,773","3,292","3,044","4,264","3,165","3,259","4,189",,,,"3,415","5,474","3,808","3,141","3,746","3,741","3,274","5,165","2,996","3,119","3,328","2,212","2,263","1,959","2,590","2,219",36611,"3,051"
Broadlea Hill Community Centre,"Broadlea Hill, Bramley",LS13 2SN,Community Centre,Bramley and Stanningley,Y,LS13 ,23186,72028337,53.817594,-1.618634,435769,435769,Y,,,,,,,,,,,,,,,,,,,,,,,,,,,,,,,,,,,550,,0,0,,29,281,0,,109,969,138
Brownlee (former Grey Horse Public House),"Long Row, Horsforth",LS18 5AA,Pub,Horsforth,Y,LS18,22039,72307672,53.842434,-1.635559,438527,424077,Y,,,,,Glass,1,,1,,587,,421,,,668,"1,085",,,332,,336,,,,543,274,404,631,479,260,,,535,281,592,,298,,,705,,375,412,,3198,457
Bruntcliffe WMC,"Wakefield Road, Morley",LS27 0LQ,Social Club,Morley North,Y,LS27,21937,72349938,53.744021,-1.623599,427582,424922,Y,,,,,Glass,1,,1,107,,314,,159,174,372,134,69,529,,339,,361,155,463,,"1,455","1,133","1,467",280,344,,,535,,"5,225",391,,0,455,,0,0,0,,6606,826
Burley Road,Burley Road,LS4 2NZ,Road Side,Kirkstall,,LS4,,7259800,53.810572,-1.585043,435001,427417,,,Y,Y,,"Textile, Small Electrical Appliances",,,0,,,,,,,,,,,,,,,,,,,,,,,,,,,,,,,,,,,,,,
Bulls Head Public House,20 St Matthews Street,LS11 9NR,Pub,Beeston and Holbeck,,LS11,21939,72643413,53.786237,-1.559838,432303,429098,Y,,,,,Glass,1,,3,,302,,587,487,,239,,195,267,,637,356,,350,256,,,,,730,,480,186,,195,301,,,604,101,,528,321,193,,2242,320
Bus Terminus,Sir George Martins Drive,LS16 8JE,Transport,Adel and Wharfedale,Y,LS16,21941,72256138,53.853396,-1.577072,439768,427918,Y,,,,,Glass,1,,4,"5,235","3,575","5,472","4,886","1,980","5,879","1,425","6,095","7,157","5,218","5,373","5,352","4,479","5,515","4,021","5,974","5,130",,,,"7,118","5,099","5,875","6,074","5,615","4,094","5,225","5,219","5,223","3,371","5,452","4,792",943,"5,668","2,385","5,524",53512,"4,459"
Buzz Bingo,Stonebridge Lane,LS12 4QN,Business,Farnley and Wortley,Y,LS12,22016,72566622,53.792398,-1.613178,432968,425580,Y,,,,,Glass,1,,1,,,,767,,530,404,,468,267,486,,623,,108,,,954,774,684,383,423,410,,268,,646,92,,702,114,308,,651,289,397,3467,385
Calverley Conservative Club,"Victoria Street, Calverley",LS28 5PT,Social Club,Calverley and Farsley,Y,LS28,21943,72272754,53.82743,-1.689123,436841,420560,Y,,,,,Glass,1,,1,"1,718","1,748","2,181","2,040","1,182",973,502,"1,278",704,"2,545","1,316","1,683","1,503",1,"1,946","1,834","1,300","1,121",487,276,"2,777","1,625","1,588","1,917","2,142","2,062","2,203","1,719","1,168","1,598",,"1,908","2,009","1,933",268,"1,366",18376,"1,671"
Car Park,Hyde Park Road Site 1,LS6 1PY,Car Park,Hyde Park and Woodhouse,,LS6,22188,72103767,53.806171,-1.5688884,434517,428489,,,,,,,,,,494,613,"1,549","1,133",813,918,655,"1,470","1,062",585,610,942,,,,787,358,"6,329","8,631","7,585",,,,,,,,,,765,218,,274,206,"1,746",,,
Cardinal Court Residents Association,Cardinal Court,LS11 8HP,Community Centre,,,LS11,23138,72725099,53.764868,-1.570377,429921,428418,Y,,,,,Glass,1,,1,,,,,,,,,,,,,,,,,,267,70,73,,626,,650,,,"1,469",496,245,,273,85,591,"2,091",,197,5447,681
Caribbean Cricket Club,"Scott Hall Rd, Leeds",LS7 2HH,Social Club,Chapel Allerton,Y,LS7,22227,72566311,53.820315,-1.543927,436101,430122,Y,,,,,Glass,1,,1,,,,,,,,,,,,,,,,,,,,,,,,,,,,,,,,,,,43,67,110,55
Carlton WMC,"Main Street, Carlton",WF3 3RW,Social Club,Rothwell,Y ,WF3,21945,72567722,53.741007,-1.489339,427302,433779,Y,,,,,Glass,1,,2,,942,"1,333",,"1,472",614,,938,"1,167",439,,"1,097",931,729,"1,168",530,636,,,,905,"1,368",317,"1,215",795,,"1,284",640,,503,,644,370,834,0,310,5381,598
Carpark,"Richardshaw Road, Stanningley",LS28 6AH,Car Park,Pudsey,Y,LS28,22203,72567603,53.803623,-1.666614,434199,422054,Y,,,,,Glass,1,,1,301,485,665,255,"1,236",795,,,,553,648,858,,,,,,572,104,93,,,,,,,,,,,,,,,,,0,#DIV/0!
Carpark,"7A Westgate, Otley",LS21 3AT,Car Park,Otley and Yeadon,Y,LS21,,72340364,53.905732,-1.695225,445551,420121,Y,,,,,Glass,1,,2,,,,,,,,,,,,,,,,,,,,,,,,,,,,,,,,,,,,,,
Carr Mills,Buslingthorpe Lane,LS7 2DD,Student Accomodation,Chapel Allerton,,LS7,21946,72034088,53.815997,-1.54531,435620,430034,Y,,,,,Glass,1,,1,,65,,,,,,,,,,441,,,156,,,,384,,374,,,,,,130,,,,186,,,,,0,316,105
Carriers Arms,"Glen Road, Morley",LS27 9HG,Pub,Morley South,Y,LS27,21947,72364795,53.739934,-1.596891,427137,426686,Y,,,,,Glass,1,,1,322,317,674,426,310,342,400,134,741,602,657,254,320,388,622,463,141,448,614,349,,"1,058",,463,358,320,379,469,190,298,425,,459,,520,"1,131",4549,455
Chapel Allerton Tennis Sqush and GymClub ,Wensley Avenue,LS7 3QX,Leisure Centre,Chapel Allerton,,LS7,22075,72559687,53.829902,-1.540768,437169,430323,Y,,,,,Glass,1,,1,566,,325,635,"1,061",534,839,465,550,960,580,,690,"1,073",,737,979,382,888,943,374,700,533,645,728,626,498,846,859,401,581,399,381,413,640,535,6908,576
Chapel Street Social Club,Chapel Street,LS15 7RN,Social Club,Temple Newsam,Y,LS15,21950,72562231,53.796769,-1.468257,433516,435123,Y,,,,,Glass,1,,3,"1,974","2,057","2,431","1,777","1,521","1,403","1,908","1,991","1,691","3,234","2,107","1,899","1,446","1,895","2,586","2,500","1,807","3,394","1,679","1,641","3,654","2,115","1,903","2,155","1,448","1,486","3,423","1,491",500,,"1,373",878,"2,045","2,158","1,373","1,227",17400,"1,582"
Chapeltown Housing Library,Reginald Terrace,LS7 3EX,Council Office,Chapel Allerton,Y,LS7,21951,72681718,53.81767,-1.531697,435812,430929,Y,,,,,Glass,1,,1,848,,436,,,320,,,330,,350,,358,312,,,,,,,,667,,,,,201,,,,,,,,80,302,583,194
Charlie Bretts at The Allerton formely Leeds Seventeen,Nursery Lane,LS17 7HW,Restaurant,Alwoodley,,LS17,22079,72146612,53.852306,-1.544354,439660,430071,Y,,,,,Glass,1,,3,"1,775",,215,,,534,,543,,,,"1,537",,,,,918,,,,861,,"1,697",,,"2,055","1,247",,,"8,120",,"1,145",,,660,"1,129",14356,"2,393"
Chequers Inn,"Claypit Lane, Ledsham",LS25 5LP,Pub,Kippax and Methley,,LS25,21952,72393541,53.762153,-1.310796,429754,445532,Y,Y,,,,"Glass, Paper",1,,3,"1,287","1,710","1,341",213,"2,770",608,"1,110","2,035",420,544,"1,948","1,021",358,,"1,641",894,"1,454",240,,,"1,046",,,"1,060","1,882",,176,"1,192",,"1,999",952,,716,,,,6916,"1,153"
Coach & Horses ,"71 Wakefield Road, Robin Hood ",LS26 0SF,Pub,Ardsley and Robin Hood,Y,LS26,21957,72373027,53.748778,-1.507761,428158,432558,Y,,,,,Glass,1,,1,718,467,647,,341,509,,601,342,711,342,731,632,513,170,687,630,"1,184","1,059","1,520",139,328,509,354,544,84,"1,335",422,614,343,,588,483,243,0,313,4971,452
Cock Beck Inn,Pendas Way Seacroft,LS15 8LA,Pub,Cross Gates and Whinmoor,Y,LS15,21958,72538870,53.815535,-1.438417,435619,437072,Y,,,,,Glass,1,,1,,471,"1,206","1,114","1,009",788,"2,007",663,"1,095",974,983,650,526,689,940,658,"1,144",,,,"1,150",658,350,"1,120",362,"1,036","1,335",517,783,686,0,536,657,"1,049",623,811,8395,700
Cockshott Lane,opp Wyther Park Road,LS12 7RQ,Road Side,Armley,,LS12,21959,72050867,53.805101,-1.609456,434383,425817,Y,,,,,Glass,1,,1,,702,,595,568,137,634,,,"1,067",714,455,"1,313",706,"1,040",503,"1,033",686,,205,"1,078",743,"1,011","1,176",751,"1,363",890,854,720,"1,692",747,850,"1,204","2,349","2,283",866,14571,"1,214"
Colton Sports & Social,School Lane,LS15 9HH,Sports Club,Temple Newsam,,LS15,21960,72245706,53.793078,-1.439461,433120,437023,Y,,,,,Glass,1,,1,,,560,109,,497,239,,165,,,476,,258,174,,669,"2,305","1,520",768,,,594,,,587,,,574,,367,0,374,,312,,2215,369
Cookridge Hall (Esporta Sports Club),Cookridge Lane,LS16 7NL,Leisure Centre,Adel and Wharfedale,,LS16,21998,72655222,53.861768,-1.610166,440687,425736,Y,,,,,Glass,1,,1,,95,,,,270,,242,,"5,800",,,,,458,,92,224,652,105,190,,,,,,673,,0,,220,,247,243,158,,1542,257
Co-op Beeston   Super 'C',"Town Street, Beeston",LS11 8PN,Supermarket,Beeston and Holbeck,Y,LS11,22251,72652832,53.812206,-1.577867,435185,427893,Y,,,,,Glass,1,,5,"3,823","3,538","3,749","4,387","5,094","3,518","3,992","3,518","5,602","6,146","3,293","4,802",,,"5,468","5,433","4,404",,670,,"5,329","6,345","5,473","3,738","6,955","5,090","5,239","5,564","5,225","4,433","5,477","4,561","5,476","4,455","3,570","4,564",60608,"5,051"
Co-op Burley Station,132 Cardigan Road,LS6 1LU,Supermarket,Headingley,Y,LS6,21965,72733326,53.812256,-1.576773,435191,427965,Y,,,,,Glass,1,,5,"3,703","3,892","6,195","2,141","4,998","4,288","2,021","5,527","6,935","7,383","3,517","2,843","1,962","2,466","6,924","3,604","2,460","6,049","5,684","6,832","3,555","3,432","2,421","3,854","3,138","4,930","4,983","4,071","3,912","4,738","5,061","3,051","1,511","2,678","2,603","3,206",43881,"3,657"
Co-op Kippax,"60 High Street, Kippax",LS25 7AB,Supermarket,Kippax and Methley,Y,LS25,21966,72324458,53.766349,-1.367619,430186,441782,Y,Y,,,,"Glass, Paper",1,,4,"7,290","3,610","8,410","5,841","7,247","4,549","9,273","3,595","9,983","8,573","6,673","6,581","6,596","5,870","5,729","7,065","5,454","8,306","11,752","4,679","6,281","9,231","5,517","6,755","6,787","9,002","7,194","9,044","8,386","7,597","6,211","6,836","11,034","7,847","5,460","7,543",92942,"7,745"
Co-op School Lane,Stainbeck Lane,LS7 3PJ,Supermarket,Chapel Allerton,Y,LS7,21967,72737735,53.772444,-1.565809,430766,428714,Y,,,,,Glass,1,,4,"7,852","6,663",,"9,033","7,830","9,610","5,923","10,513","14,891","11,750","10,716","8,835","10,508","10,400","9,985","4,977","18,435","2,481","2,884","1,808","9,506","13,733","10,239","8,248","12,875","10,814","13,618","16,447","13,523","10,964","13,793","12,381","14,138","31,224","23,272",19.574.44,173048,"15,732"
Corner House Club,Lidgett Lane,LS17 6QE,Social Club,Moortown,Y,LS17,21968,72522938,53.841514,-1.533513,438464,430792,Y,,,,,Glass,1,,1,"1,723","1,959","2,327","2,244","2,464","1,539","1,193","2,381","1,129",976,"2,780","2,400","1,906","3,107","2,167","3,083","2,604",457,460,103,"2,593","2,172","2,664","2,481","3,718","2,996","2,304","2,949","2,277","1,922","3,455","2,987","3,235",,"5,988","5,153",36984,"3,362"
Corpus Christi Catholic Mens Club,Halton Moor Avenue,LS9 0HD,Social Club,Temple Newsam,,LS9,21969,72560923,53.798579,-1.483356,433710,434127,Y,,,,,Glass,1,,3,228,458,,744,775,234,670,181,208,761,,840,320,517,246,455,267,,,,495,574,356,646,,515,"1,186",175,690,336,484,352,532,0,346,560,5176,471
Cottingley Shops Car Park,Cottingley Vale,LS11 0JY,Shops,Beeston and Holbeck,,,22317,72254886,53.769092,-1.583685,430386,427538,Y,,,,,Glass,,,,,,698,,,177,404,,"1,991",960,417,,,,381,,,"2,670","5,254","3,785",387,617,,742,,192,207,,270,,,,317,,,868,1853,371
Cricketers Arms,"The Green, Seacroft",LS14 6JW,Pub,Killingbeck and Seacroft,Y,LS14,21975,72210056,53.819923,-1.460293,436096,435628,Y,,,,,Glass,1,,1,,,197,477,843,519,"1,413",,351,233,434,538,,776,474,670,321,"2,819","3,682","3,773",354,266,152,80,634,442,"1,723",808,607,324,437,423,321,553,588,,6860,624
Crossgates & Dist. Rec Hall,"Poplar Avenue, Crossgates",LS15 8ED,Social Club,Cross Gates and Whinmoor,Y,LS15,21976,72159210,53.806648,-1.446584,434626,436542,Y,,,,,Glass,1,,3,,,"1,577",,,"1,875",,"1,440",,"1,998",,"1,662",,,"1,854",,"2,602","3,494","3,008","2,826",,"1,809",916,,"1,708",,"1,195",,"1,723",,"1,514","10,508",,"2,158",,"4,915",23720,"3,389"
Crossgates WMC,Orchard Road,LS15 7LP,Social Club,Killingbeck and Seacroft,,LS15,21978,72150534,53.805862,-1.455524,434534,435954,Y,,,,,Glass,1,,3,,544,390,361,"2,254",983,942,,416,974,528,325,372,517,"1,170",240,167,492,,190,,531,600,754,215,84,"4,457",701,371,,787,245,328,629,196,,8014,801
Crusader Public House,"Long Meadow Gate, Garforth ",LS25 2BY,Pub,Garforth and Swillington,Y,LS25,21980,72314954,53.783566,-1.378652,432095,441038,Y,Y,,,,"Glass, Paper, Small Electrical applicanes",1,,3,"2,991","4,087","5,322","4,136","5,299","4,204","8,694","3,272","5,006","3,585","4,316","4,401","4,900","5,203","5,177","5,039","4,893","3,368","4,934","2,561","4,548","5,847","4,045","5,559","4,925","5,643","4,884","4,080","4,776","3,915","4,686","5,443","5,521","3,852","3,831","6,223",57779,"4,815"
Deepdale Community Centre,"Deepdale Lane, Boston Spa",LS23 6EH,Childrens Centre,Wetherby,Y,LS23,21981,72651236,53.907551,-1.356826,445902,442351,Y,,,,,Glass,1,,1,"3,131","3,645","3,246","4,166","3,073","2,438","3,332","4,925","5,714","4,806","2,600","3,260","3,139","3,556","4,523","4,208","3,404",336,,,"4,987","4,280","3,667","4,576","4,577","3,066","6,311","5,616","4,461","3,729","4,614","4,890","4,301","2,554","2,413",,46532,"4,230"
Devon Hotel,Kingswear Crescent,LS15 8LR,Pub,Cross Gates and Whinmoor,Y,LS15,21982,72111147,53.80243,-1.444119,434158,436708,Y,,,,,Glass,1,,3,"1,830",,"2,970","1,094","2,036","1,321","6,664","1,336","2,597",254,"1,466",635,"2,310","2,358","2,886","1,864","2,423","1,418","1,800","1,198","3,034","1,238","2,219","2,742","2,128","1,886","1,723","2,624","1,242","1,928","2,396","1,110","2,037","4,043",467,"4,220",25803,"2,150"
Devonshire Hall,Cumberland Rd,LS6 2EQ,Business,Headingley,,LS6,23142,72055042,53.818326,-1.565614,435871,428696,Y,,,,,Glass,1,,,,,,,,,,,,,,,,,,,,,,,,,,,,,,,,,,,,,,441,441,441
Dewsbury Rd Social Club,Dewsbury Road,LS11 5LR,Social Club,Beeston and Holbeck,,LS11,21983,72532349,53.770104,-1.550312,430512,429737,Y,,Y,,,"Glass, Textiles",1,,1,,,,291,81,412,,282,,713,,,191,,,597,,"5,580","2,637","2,676",129,,632,186,,,660,,595,,201,,317,,"2,390",,4163,833
Drighlington Cricket Club,Station Road,BD11 1JU,Sports Club,Morley North,Y,BD11,21985,72547352,53.755411,-1.663447,428836,422288,Y,Y,,,,"Glass, Paper",1,,3,"3,771","6,672","3,750","2,948","6,573","5,414","3,182","4,795","5,858","3,871","6,263","1,864","4,751","4,519","3,759","4,000","7,487",522,"1,576","1,125","5,609","4,786","5,010","3,566","3,247","6,429","4,457","4,225","3,084","3,008","4,233","1,942","3,315","5,421","2,653","7,265",49279,"4,107"
Driglington Tempest Club,Bradford Road,BD11 1AB,Social Club,Morley North,,BD11,22332,72352819,53.75745,-1.663112,429063,422309,Y,Y,,,,"Glass, Paper",,,,375,562,157,297,310,764,,760,,272,284,,,580,174,551,141,"4,047","3,201","2,866",494,344,,,,618,881,561,,,652,,536,534,,507,4288,613
Duke Of Wellington,"Main Street, East Keswick",LS17 9DB,Pub,Harewood,Y,LS17,21987,72389346,53.892047,-1.451072,444125,436173,Y,,,,,Glass,1,,2,"1,586","1,212","1,836","2,089",938,806,"1,323",550,"2,448","2,566","1,174","1,889","1,175","1,335","2,607","1,720","1,278",,,,"2,109","1,911","1,388","2,388","1,558","1,074","1,835","1,465","1,282","1,399","1,180","1,184","1,492",721,814,"1,509",15513,"1,293"
East & West Ardsley WMC (closed),"Bradford Road, East Ardsley",WF3 2EP,Social Club,Ardsley and Robin Hood,Y ,WF3,21988,72546324,53.727642,-1.552296,425787,429636,Y,,,,,Glass,1,,3,"3,177","5,043","4,021","4,204","4,688","2,406","2,339","4,186","3,269","3,431","3,064","2,760","2,130","3,578","2,320","3,294",495,,115,429,"2,738","5,611","1,946","3,138","2,861","2,266","2,129","4,101","1,981","2,719","2,483",805,"2,332","1,373","1,941","1,358",26348,"2,196"
East End Park WMC (closed),15 Vinery Avenue ,LS9 9LX,Social Club,Burmantofts and Richmond Hill,Y,LS9,21990,72561691,53.796132,-1.510744,433425,432325,Y,,,,,Glass,1,,2,723,749,"1,578",426,"1,063","1,248","1,601","2,067","2,464",950,596,834,690,"1,306",475,"1,226","1,632",186,,410,776,502,"1,067","1,116",717,"1,545",797,893,"1,143",336,"1,329",531,"1,296",0,693,571,9851,821
East Keswick Village Hall,"School Lane, East Keswick",LS17 9DA,Business,Alwoodley,,LS17,,72389414,53.893829,-1.449648,444324,436265,N,Y,,,,Paper,1,,0,,,,,,,,,,,,,,,,,,,,,,,,,,,,,,,,,,,,,,
East Keswick Village Hall,"School Lane, East Keswick",LS17 9DA,Business,Harewood,Y,LS17,,72389414,53.893829,-1.449648,444324,436265,,Y,,,,Paper,1,,1,,"1,459","1,017",,,541,,"1,991",507,"1,452",298,,,,,,,177,"1,075",758,,,,,,,,,,,,,,,,,,
East Leeds Community Sports Club,Easy Road,LS9 8QS,Sports Club,Burmantofts and Richmond Hill,Y,LS9,21993,72062721,53.791381,-1.518374,432893,431826,Y,,,,,Glass,1,,1,,575,277,,,497,79,359,,214,298,,,456,,,424,,115,,77,493,,590,,,341,526,,,91,571,0,,,,1529,306
East Leeds Cricket Club,Pontefract Lane,LS9 0PT,Sports Club,Burmantofts and Richmond Hill,,LS9,21991,72565932,53.790231,-1.511753,432768,432263,Y,,,,,Glass,1,,1,,575,436,159,74,156,200,771,,,,,762,,,371,,90,227,105,,,,472,,77,"1,050",,,,363,,240,,377,,2108,422
East Leeds Snooker C,Sandleas Way,LS15 7AF,Sports Club,Cross Gates and Whinmoor,Y,LS15,21992,72178034,53.808708,-1.429792,434864,437646,Y,,,,,Glass,1,,1,244,,197,,138,,930,63,143,254,,317,,172,,247,,,,,,,305,,,520,0,0,,,541,,161,527,,,1748,291
Easterley Cross,Off St Wilfreds Ave,LS8 3PB,Road Side,Gipton and Harehills,,LS8,22959,72061576,53.816255,-1.507337,435665,432534,Y,,,,,Glass,,,,,792,"3,338","1,728","1,625",,"1,362","1,916",,,,,,,466,491,281,221,648,"1,021",,,376,,,,394,,0,,163,,641,,189,,1386,277
Easterly Mount,Gipton,LS8 3PH,Road Side,Gipton and Harehills,,LS8,21994,72195894,53.817053,-1.505698,435755,432641,Y,,,,,Glass,1,,1,,,926,159,258,,159,91,,169,550,,,258,,327,187,,,,165,334,,,,,"1,050",0,557,,0,,0,"3,024",,,4632,772
Echem,147 Kirkstall Road,LS3 1JN,Business,Armley,Y,LS3,22331,72112771,53.802497,-1.572149,434107,428276,Y,,,,,Glass,1,,1,,,,,,,,,,,,,662,,,,,511,965,471,516,,,,,,,,,,,638,,,,,638,638
Edmund House Club,Pontefract Lane,LS9 8QJ,Social Club,Burmantofts and Richmond Hill,Y,LS9,21995,72538936,53.792032,-1.514814,432967,432060,Y,,,,,Glass,1,,1,,487,556,308,"1,938",,"2,158",538,,350,447,300,137,517,,502,187,84,651,257,154,344,490,,429,,341,438,,431,,308,328,0,0,606,2881,320
Edward 7th WMC,"65 Leeds Road, Allerton Bywater",WF10 2HE,Social Club,Kippax and Methley,Y,WF10,21996,72322947,53.752401,-1.383449,428625,440752,Y,,,,,Glass,1,,1,,,868,,"1,072",340,940,"1,482",704,998,298,712,558,726,"1,083",330,226,"1,635","1,035",412,972,"1,549",457,"1,828",215,"1,860",739,"3,391",965,"1,166","1,054","1,523",648,"1,538",623,"1,524",15245,"1,270"
Falconers Rest Public House,"Thorpe Lane, Middleton.",LS10 4EP,Pub,Ardsley and Robin Hood,Y,LS10,22002,72566749,53.738591,-1.543144,427009,430232,Y,,,,,Glass,1,,1,608,158,"1,112",232,755,257,267,701,208,587,880,,666,273,466,352,351,"3,029",,,876,484,188,432,429,686,683,834,681,172,557,161,561,0,580,571,5915,493
Farsley Celtic AFC,Throstle Nest,LS28 5AY,Sports Club,Calverley and Farsley,Y,LS28,22005,72275092,53.80962,-1.664091,434867,422217,Y,,,,,Glass,1,,1,446,488,416,331,484,290,396,,524,354,190,721,,521,585,"1,011",359,"2,512","1,686","1,275",326,83,,444,346,642,673,222,307,"1,290",312,300,847,"1,053","1,058",731,7782,648
Farsley Celtic AFC Car Park,"Newlands, Farsley, Pudsey",LS28 5BE,Sports Club,Calverley and Farsley,Y,LS28,22006,72275092,53.80962,-1.664091,434867,422217,Y,,,,,Glass,1,,1,847,"1,360",665,"1,736",955,"1,432","1,023",248,"2,115","1,436",,561,,"1,328",727,552,"1,770","1,704","2,181",774,"1,743","1,485","1,611","2,265","1,716","1,913","1,219","1,569","1,443","2,453",950,"1,000","3,604","2,114",697,946,19625,"1,635"
Farsley Cricket Club,"The Pavillion, Red Lane, Farlsey ",LS28 5JE,Sports Club,Calverley and Farsley,,LS28,22970,72275499,53.813997,-1.677057,435350,421361,Y,,,,,Glass,1,,1,,,,,,,,,,,,,,,,,,,117,,,,"2,048",710,,,430,,,0,,,191,,,,621,207
Farsley WMC,"School Sreet off Wesley Street, Farsley",LS28 5EU,Social Club,Calverley and Farsley,Y,LS28,22007,72273773,53.812369,-1.670022,435171,421825,Y,,,,,Glass,1,,1,"1,048",969,"1,114","1,428","1,817","1,420","1,124",660,"1,227","1,333",548,"1,088",853,"1,151",727,,"2,088",,,,"1,350",746,"1,638","1,938","1,299",,596,"1,138",850,"1,133",,"2,128","1,811",737,623,"1,128",11443,"1,144"
Fearnville Leisure Centre,"Oakwood Lane, Fearnville",LS8 3LF,Leisure Centre,Gipton and Harehills,Y,LS8,22008,72148595,53.815112,-1.488575,435547,433770,Y,,,,,Glass,1,,3,"2,027","1,429","1,926","2,105",,"1,629","1,563","1,008",,"1,017","2,097","1,611",2,"3,095",,"2,566","1,400",,,,"1,095","1,705","2,000",712,"1,301","2,440","1,909",819,"2,083","1,835","2,984","2,340","1,853","3,550","1,447","1,194",23754,"1,980"
Fisherman's Car Park,Weetwood Lane ,LS16 5LT,Restaurant,Weetwood,Y,LS16,21938,72224560,53.828198,-1.582437,436962,427582,Y,Y,,,,"Glass, Paper",1,,1,"2,568","2,505","2,634","2,261","2,078","2,070","1,479","2,614","3,084","2,291","2,418","2,219","2,083","2,451","2,429","2,784","2,286",,,,"2,006","2,726","1,781","2,375","2,733","1,994","2,101","2,614","1,759","1,673","2,409","2,233","2,509","2,123","1,806","2,800",26755,"2,230"
Football World Leeds,Pontefract Lane,LS9 0RA,Business,Burmantofts and Richmond Hill,,LS9,22011,72672526,53.785803,-1.505977,432278,432647,Y,,,,,Glass,1,,1,,287,,,232,,223,,,602,,,,,,535,,,208,185,,,237,,,,352,,145,,581,,0,,0,,1078,216
Fox & Hound,"Hall Park Road, Walton, Wetherby",LS23 7DQ,Pub,Wetherby,Y,LS23,22013,72393838,53.924192,-1.326404,447772,444332,Y,Y,,,,"Glass, Paper",1,,1,,320,191,513,,245,"2,441",,268,233,180,,371,"1,426",537,168,,626,732,494,302,443,,710,,"1,403",300,,,486,269,260,0,264,,0,2981,373
"Fox & Hounds, Bramhope, Public car park","Old Lane, Bramhope",LS16 9AX,Pub,Adel and Wharfedale,Y,LS16,22013,72346130,53.885381,-1.624689,443309,424767,Y,,,,,Glass,1,,5,"6,585","2,741","6,069","1,867","4,946","5,189",,"5,520","5,963","6,479","5,020","6,699","5,609",,"7,733","4,873","5,987",354,118,740,"7,399","5,939","4,708","8,916","5,960","3,298","7,655","6,760","6,188","6,308","8,505","5,365","8,319","8,070","2,675","8,141",77244,"6,437"
Fox and Grapes,"124 Smalewell Road, Pudsey",LS28 8HU,Pub,Pudsey,Y,LS28,22014,72391238,53.851198,-1.391727,439612,440112,Y,,,,,Glass,1,,1,158,496,,363,,,752,,,369,835,191,,,619,300,166,677,117,,,,105,266,,375,430,71,181,825,100,145,351,209,299,179,3165,288
Fox Inn,"Main Street, Thorner",LS14 3DX,Pub,Harewood,Y,LS14,22015,72385674,53.8573,-1.428067,440271,437716,Y,,,,,Glass,1,,1,412,426,"1,069",526,441,745,894,,"1,105",350,,409,364,"1,113",276,994,459,524,,360,708,807,612,355,"1,235",,0,961,400,476,461,501,,395,588,661,5679,568
Gaping Goose Public House,"41 Selby Road, Garforth",LS25 1LR,Hotel,Garforth and Swillington,Y,LS25,22018,72314899,53.787068,-1.399182,432473,439682,Y,,,,,Glass,1,,1,367,599,,477,341,267,159,731,248,508,354,316,825,269,,738,,534,139,,244,,,953,,594,352,341,,504,336,,656,130,,329,3241,405
Gardeners Arms,"Wide Lane, Morley",LS27 8SU,Pub,Morley South,,LS27,22019,72366983,53.746755,-1.580707,427902,427749,Y,,,,,Glass,1,,2,643,458,516,520,"1,938",513,918,,"1,118",942,,678,"1,011",729,"1,348",606,750,,314,361,"1,341",,"1,060","1,164",997,"1,859",168,"1,976",764,"1,267","1,557",996,"1,399","1,644","1,130","1,483",15239,"1,270"
Gardeners Arms Public House,"383 Leeds Road, Lofthouse",WF3 3QE,Pub,Ardsley and Robin Hood,Y ,WF3,22020,72700363,53.7355,-1.504869,426682,432759,Y,,,,,Glass,1,,2,304,,,,,,467,"1,530",,203,,169,,,494,,,90,,,"1,341",344,606,,,641,168,,681,,227,,"1,399",0,145,,3261,466
Garforth Country Club,"19 Aberford Road, Garforth",LS25 1PZ,Social Club,Garforth and Swillington,Y,LS25,22021,72527225,53.796956,-1.385164,433581,440596,Y,,,,,Glass,1,,1,105,956,560,592,168,679,501,497,661,363,619,566,632,410,188,878,489,,236,288,,493,,449,,525,704,341,125,343,252,37,"1,179",950,312,480,5247,477
Garforth Cricket Club,"Church Lane, Garforth",LS25 1PE,Sports Club,Garforth and Swillington,Y,LS25,22022,72314295,53.792869,-1.385649,433126,440568,Y,,,,,Glass,1,,1,401,,"1,083",,"1,216",203,318,,,544,93,,,415,,326,,"1,997",851,"1,244",442,,,,512,,88,,146,,168,,,169,90,,1173,195
Garforth Golf Club ,"Long Lane, Garforth",LS25 2DS,Sports Club,Harewood,Y,LS25,22023,72536177,53.812756,-1.388441,435337,440365,Y,,,,,Glass,1,,1,,236,,,426,780,557,,318,,366,,,,680,,401,409,,,,,,354,,,528,338,,,671,,165,,623,,2326,465
Garforth Leisure Centre,"Ninelands Lane, Garforth",LS25 1NX,Leisure Centre,Garforth and Swillington,Y,LS25,22024,72555715,53.791432,-1.37553,432972,441236,Y,,,,,Glass,1,,3,"1,046","1,783",,"1,072","4,011",,"1,087",581,"2,164","1,996","1,206","1,032",837,"1,306",497,"2,459","1,275",712,120,,442,845,"1,732","1,983",907,"2,533","1,044",947,"1,703","1,372","1,090","2,159","1,286","1,749",316,,15105,"1,373"
Garforth WMC,"Barley Hill Road, Garforth ",LS25 1AU,Social Club,Garforth and Swillington,Y,LS25,22025,72528293,53.792131,-1.394358,433039,439995,Y,,,,,Glass,1,,1,210,314,552,254,84,672,719,497,408,363,530,615,434,269,282,574,237,,312,,530,247,,594,568,616,521,170,167,257,252,146,753,216,113,549,4328,361
Gathorne Terrace,Roundhay Road,LS8 5EZ,Road Side,Chapel Allerton,Y,LS8,22026,72635865,53.811484,-1.523817,435127,431452,Y,,,,,Glass,1,,1,255,525,215,,303,272,137,256,606,551,282,176,572,,702,299,,371,230,315,274,663,,572,,,920,307,198,602,270,186,"1,070","28,828",289,0,32672,"3,267"
Gildersome Cricket Club,"Street Lane, Gildersome",LS27 7HX,Sports Club,Morley North,,LS27,22030,72356000,53.75258,-1.635105,428530,424158,Y,,,,,Glass,1,,1,304,"1,179",,,969,181,,327,,439,,,,430,,,,"1,475",729,"2,091",,,,463,,,,560,,,244,,,0,,0,804,201
Gipton WMC,Coldcotes Circus,LS9 6QE,Social Club,Gipton and Harehills,,LS9,22031,72541103,53.808259,-1.493989,434782,433419,Y,,,,,Glass,1,,3,107,229,277,,"1,074",,670,181,131,508,,493,474,273,,371,97,197,,253,,418,,399,429,,788,351,,,489,,161,0,377,,2594,371
Gildersome Meeting Hall (next to library),Town Street,LS27 7AB,Business,Morley North,,LS27,,72356280,53.757995,-1.628677,429135,424579,,Y,,,,Paper,,,0,,,,,,,,,,,,,,,,,,,,,,,,,,,,,,,,,,,,,,
Golden Acre Car Park 1,"Arthington Road, Bramhope",LS16 8BQ,Car Park,Adel and Wharfedale,Y,LS16,22034,72152281,53.871478,-1.592083,441774,426919,Y,,,,,Glass,1,,3,"2,306",704,697,"2,188",213,"3,162","1,910","2,896","5,995","1,167",,"2,860",488,"1,024","1,291","1,975","1,905",,,,"1,072","1,541","2,470","1,794",696,920,"1,591","1,828","1,498","1,523",,"1,436","2,588","2,599","1,515","2,085",18279,"1,662"
Glossop View,Glossop View,LS6 2LL,Road Side,Headingley,,LS6,,72092425,53.816636,-1.553,435688,429527,,,Y,,,Textile,,,0,,,,,,,,,,,,,,,,,,,,,,,,,,,,,,,,,,,,,,
Golden Acre Car Park 2,Otley Road,LS16 9JX,Car Park,Adel and Wharfedale,Y,LS16,22035,72152281,53.871478,-1.592083,441774,426919,Y,,,,,Glass,1,,3,"1,504",,,,"1,213",270,,,"2,780",409,"1,794","2,214",1,"2,002","2,348","1,196","1,292","1,766",,"1,333","1,756","1,654","1,474","1,169","1,071","2,218",341,,,,"2,172",,,,,,5803,"1,451"
Golden Lion,Beeston Road,LS11 8RP,Pub,Beeston and Holbeck,Y,LS11,22037,72018326,53.783744,-1.551699,432029,429636,Y,,,,,Glass,1,,1,,540,597,,81,407,,,488,,281,264,,347,350,427,215,505,322,684,,568,316,278,,390,218,,521,,233,,247,"1,798",151,,3558,508
Grand Indian Lounge,"40 Wakefield Road, Swillington",LS26 8DJ,Restaurant,Garforth and Swillington,Y,LS26,22254,72330038,53.767576,-1.419957,430293,438331,Y,,,,,Glass,1,,1,367,863,"1,043",866,"1,696","1,064","1,861","1,357","1,237",796,"1,215",,,,"1,249",893,"1,500",,,,"1,461",776,714,619,"1,022","1,673",598,"1,133","1,646",522,,"1,157","1,207",803,626,658,11045,"1,004"
Grange Park Sports Club,"Grange Park, Old Boston Road",LS22 5DY,Sports Club,Wetherby,Y,LS22,22356,72685905,53.916968,-1.371633,446941,441369,Y,,,,,Glass,1,,1,,,271,147,63,,73,347,145,117,434,,161,,153,254,,,,,,,,,,,615,,0,,,130,,"1,280","1,515",,3540,708
Great Preston Snooker Club (former Miners Welfair Club),"Berry Lane, Great Preston",LS26 8AX,Social Club,Garforth and Swillington,Y,LS26,22040,72328130,53.760999,-1.3898,429578,440325,Y,,,,,Glass,1,,3,962,"18,353","1,191","1,502",925,849,"1,025","2,331","1,419",968,"1,149",759,"1,189","1,652",155,"1,589","1,314",,,,,"1,363",885,932,"1,139","1,860","1,156","1,403","1,572",,"1,054","1,418",904,,181,843,11529,"1,153"
Gusto's Restaurant,151 Otley Old Road,LS16 6HN,Restaurant,Weetwood,Y,LS16,21999,72151145,53.845417,-1.601274,438871,426331,Y,,,,,Glass,1,,3,"5,303","5,002","4,892","4,886","6,515","4,216","4,021","6,263","6,959",,"4,533",,"5,328","5,975","4,587","6,848","5,188",85,364,,"5,148","4,885","5,866","3,814","7,272","5,157","5,899","6,586","4,807","2,929","4,777","4,522","7,480","6,403","6,042","4,534",66407,"5,534"
Guiseley School,Fieldhead Road,LS20 8DT,Educational Facility,Guiseley and Rawdon,,,,72299572,53.871175,-1.717938,441700,418644,,Y,,,,Paper,,,0,,,,,,,,,,,,,,,,,,,,,,,,,,,,,,,,,,,,,,
Harehills Labour Club,Florence Street,LS9 7BX,Social Club,Gipton and Harehills,Y,LS9,22043,72071449,53.808361,-1.511938,434785,432237,Y,,,,,Glass,1,,1,,153,647,319,"1,033",,"1,155",724,512,380,550,352,485,,705,,388,"2,894","1,685","3,906",165,658,711,478,269,481,341,207,321,,91,"3,655",,950,580,,6895,766
Harewood Village Hall,Church Lane,LS17 9LJ,Business,Harewood,Y,LS17,22278,72387617,53.902591,-1.513808,445268,432042,Y,,,,,Glass,1,,3,,,,,,,,,,,,,,,657,494,939,"1,125",,"3,575",708,886,996,346,,"1,769",440,"1,447",607,,,489,"1,528",292,"1,177",,7749,969
Hawksworth Wood Conservative Club,Cragside Walk,LS5 3LX,Social Club,Kirkstall,Y,LS5,22047,72051298,53.829731,-1.620339,437119,425086,Y,,,,,Glass,1,,3,,,"1,747","1,756",,535,,"2,357","1,001","2,083","1,660","1,716",,"3,399",,"2,260","1,491",186,,,"2,244","1,563",809,"1,427",982,"2,586",592,720,0,"2,221",657,"2,181","3,954",978,,977,15847,"1,441"
Headingley Taps Public House,"North Lane, Headingley",LS6 3HN,Pub,Headingley,,LS6,22049,72565717,53.820562,-1.579651,436114,427770,Y,Y,Y,Y,,"Glass, Paper, Textile, Small Electrical Appliances",1,,3,"3,215","2,709","7,114",,"4,613","4,570","1,095","2,460","4,018","2,723","3,850","2,684","1,993","3,112","4,464","2,755","3,014",,190,,"3,105","2,544","2,074","2,891","2,771","3,668","2,533","11,342","2,113","2,466","3,379","2,447",935,"2,976","1,282","2,698",38610,"3,218"
Highways Office,Middleton Ringroad,LS10 4AX,Council Office,Middleton Park,,LS10,22050,72674864,53.746467,-1.536856,427888,430641,Y,,,,,Glass,1,,1,,383,,,170,,134,,,,,150,,,,441,,,,,,,593,,,232,,,,,677,,,,,,909,455
Hinsley Hall,62 Headingley Lane,LS6 2BX,Hotel,Headingley,,LS6,22052,72662567,53.819674,-1.570045,436019,428403,Y,,,,,Glass,1,,1,,,,512,,534,,388,,,,697,,312,,171,,,,,332,,,313,,564,,226,,,64,486,117,0,,379,1836,262
Holbeck Community Centre,"90A Elland Road, Holbeck", LS11 0AB,Community Centre,Beeston and Holbeck,,LS11,23141,72548760,53.781479,-1.561716,431773,428978,Y,,,,,Glass,1,,1,,,,,,,,,,,,,,,,,,,,,,,,,,195,253,,245,,274,,288,"1,568",,0,2823,403
Holbeck WMC,"3 Jenkinson Lawn, Holbeck",LS11 9QX,Pub,Beeston & Holbeck,,LS11,23159,72740058,53.785324,-1.555106,432203,429440,Y,,,,,Glass,1,,,,,,,,,,,,,,,,,,,,,,,,,,371,,390,,328,270,,402,,217,777,289,,2673,382
Holiday Inn,"Wakefield Road, Garforth",LS25 1LH,Hotel,Garforth and Swillington,Y,LS25,22053,72329956,53.785244,-1.404626,432267,439325,Y,,,,,Glass,1,,2,628,941,,"1,093","1,001",911,"1,662",814,579,"1,184",257,944,145,615,282,"1,067",483,300,547,844,"1,173",,"1,051","1,122",,"1,058",,736,979,86,503,672,741,519,90,627,6011,601
Horsforth Cricket Club,"King Georges Playing Field, Brownberrie Lane, Horseforth",LS18 5SB,Sports Club,Horsforth,Y,LS18,22057,72553164,53.846754,-1.637406,439007,423953,Y,,,,,Glass,1,,1,,,582,"1,436","1,759","1,003",640,666,440,274,256,191,,575,645,553,543,,720,410,383,565,960,,268,529,257,284,820,362,,576,191,"1,624",516,206,5632,512
Hunslet Carr Sports & Social,Moor Road,LS10 2JJ,Social Club,City and Hunslet,Y,LS10,22059,72548455,53.772012,-1.532266,430732,430925,Y,,,,,Glass,1,,3,161,208,"1,755",341,751,770,801,,938,135,"1,010",,,948,,616,137,,"13,866","12,070",165,"1,128",,,,,,78,,689,968,176,492,"1,068",,,3471,578
Hunslet Green Community Sports Club,"The Oval, Hunslet",LS10 2AT,Sports Club,City and Hunslet,Y,LS10,22058,72548513,53.779373,-1.532093,431551,430931,Y,,,,,Glass,1,,3,,575,,,147,,610,,737,,,534,,517,575,352,,,336,257,,254,,,,,"12,734",,80,,,,0,0,,,12815,"3,204"
HWSS Ellar Ghyll,"Bradford Road, Otley",LS21 3DN,HWSS,Otley and Yeadon,Y,LS21,22066,72554769,53.896333,-1.730111,444496,417833,Y,Y,Y,Y,,"Glass, Paper, Textile, Shoes, Books, Small Electrical Appliances",1,,6,"11,653","19,087",,"13,999","18,412","10,066","8,824","10,708","22,428","18,135","15,130","11,076","14,911","17,801","13,613","12,220","15,347","9,998","13,202","10,236","20,799","18,796","12,464","11,479","14,794","17,070","14,628","19,082","13,269","12,453",,"11,081","11,488","12,357","12,887","11,683",150791,"13,708"
HWSS Kirkstall,Kirkstall Road,LS4 2HR,HWSS,Kirkstall,Y,LS4,22062,72168115,53.806303,-1.584799,434526,427440,Y,Y,Y,Y,,"Glass, Paper, Textile, Shoes, Books, Small Electrical Appliances",1,,4,,,,,,,,,,,,"3,182","5,255","6,846","5,879","8,405","6,957","6,562","9,742","3,439","6,145","9,560","5,372",,,,"21,030",,,,,,,,,,21030,"21,030"
HWSS Meanwood,Meanwood Road,LS7 2LP,HWSS,Chapel Allerton,Y,LS7,22985,72130391,53.819615,-1.55364,436019,429483,Y,Y,Y,Y,,"Glass, Paper, Textile, Shoes, Books, Small Electrical Appliances",1,,10,,,,,,,,,,,,,,,"24,068","23,332","17,444",191,,,"24,480","31,690","19,342","18,968","22,914","24,256",154,"41,076","30,075","15,041",,"20,458","56,069","33,062","26,336","31,550",300991,"27,363"
HWSS Middleton,"Holmewell Road, Middleton",LS10 4TQ,HWSS,Middleton Park,Y,LS10,22063,72568081,53.748932,-1.528682,428166,431178,Y,Y,Y,Y,,"Glass, Paper, Textile, Shoes, Books, Small Electrical Appliances",1,,7,"9,600","13,183","19,656","14,536","18,484","12,774","15,589","10,764","20,889","17,387","9,733","16,283","17,744","14,679","20,809","18,175","12,470","17,404","18,898","18,069","15,321","21,969","12,891","11,620","19,171","14,546","12,734","14,823","9,042","12,862","9,848","10,849","15,057","23,957","13,432","11,840",168161,"14,013"
HWSS Pudsey Grangefield,Richardshaw Road,LS28 6LG,HWSS,Calverley and Farsley,Y,LS28,22060,72394172,53.804812,-1.654745,434335,422835,Y,Y,Y,Y,,"Glass, Paper, Textile, Shoes, Books, Small Electrical Appliances",1,,3,"13,906","14,606","11,286","12,968","18,484","11,716","11,909","13,596","16,617","19,233","12,461","13,810","14,793","12,529","14,012","14,281","11,424","12,231","15,352","12,284","10,948","16,900","13,233","9,605","13,056","11,238","12,230","11,462","11,280",,"8,942","9,675","13,289","11,199","10,209","9,228",121807,"11,073"
HWSS Seacroft,Limewood Approach,LS14 1LU,HWSS,Killingbeck and Seacroft,Y,LS14,22228,72119915,53.827845,-1.465084,436975,435306,Y,Y,Y,Y,,"Glass, Paper, Textile, Shoes, Books, Small Electrical Appliances",1,,6,"17,372","20,689","20,069","23,129","21,052","23,105","16,361","14,603","25,286","28,231","17,100","21,482","24,292","24,826","23,155","23,781","20,526","1,109","1,398","1,165","17,809","28,476","18,693","16,842","21,816","20,626","23,866","22,225","21,475","16,752","16,729","15,223","21,091","17,580","13,059","18,405",228847,"19,071"
HWSS Thorp Arch,Thorp Arch Trading Estate,LS23 7BJ,HWSS,Wetherby,Y,LS23,22065,72651978,53.905913,-1.318889,445743,444845,Y,Y,Y,Y,,"Glass, Paper, Textile, Shoes, Books, Small Electrical Appliances",1,,5,"12,043","9,893","14,650","16,850","9,531","11,216","11,004","13,505","18,351","18,609","9,761","12,807","12,692","12,466","12,114","13,556","11,697","20,505","25,171","13,171","11,531","18,780","9,562","10,465","12,744","10,607","13,210","11,129","11,136","9,667","12,070","7,976","12,394","8,714","8,134","10,812",128594,"10,716"
HWSS Yeadon,Milner Road,LS19 7JE,HWSS,Guiseley and Rawdon,Y,LS19,22066,72524755,53.865496,-1.703174,441072,419617,Y,Y,Y,Y,,"Glass, Paper, Textile, Shoes, Books, Small Electrical Appliances",1,,4,"22,063","28,531","14,098","11,533","18,483","10,656","13,045","24,169","29,552","32,658","24,966","19,970",26,"20,961","20,898","23,525","27,509","20,301","20,661","18,711","10,337","30,607","23,065","17,013","22,279","28,089","21,030","26,897","19,878","18,414","25,008","18,088","33,158","20,324","19,143","20,844",273154,"22,763"
"Hyde Park Car Park, Site 2",Woodhouse Lane,LS6 1AQ,Car Park,Hyde Park and Woodhouse,Y,LS6,22354,72136753,53.814328,-1.561478,435428,428971,Y,Y,,,,"Glass, Paper",1,,2,147,258,"1,137",733,796,445,484,876,786,721,"1,009",682,,,,428,868,,547,,917,502,655,289,637,651,604,646,347,143,386,562,271,650,320,750,5966,497
Hyde Park Centre,Hyde Park,,Road Side,Hyde Park and Woodhouse,,,23106,,53.811696,-1.560086,435135,429064,Y,,,,,Glass,1,,2,,,,,,,,,,,,,,,,,,549,,"1,196",,,,,,,,,,,,,,,,,0,#DIV/0!
"Hyde Park Centre, Site 5","Hyde Park, Band Stand",LS6 1,Park,Hyde Park and Woodhouse,,LS6,22574,,53.810885,-1.560983,435045,429006,Y,,,,,Glass,1,,2,,,,,,,,,,,,,,,,,,,,,,,,,,,857,,,,,,,,,,857,857
"Hyde Park Pathway, Site 4","Hyde Park, Hyde Park Rd",LS6 1SJ,Road Side,Hyde Park and Woodhouse,Y,LS6,22305,72175654,53.812404,-1.563674,435213,428827,Y,Y,,,,Glass,1,,3,,,,,,,,,,,,,,,,346,400,,,,868,667,"1,143","1,529","1,038","1,449","2,322","1,253",867,554,"1,475",988,800,593,"1,276","1,513",14126,"1,177"
"Hyde Park Roadside, Site 3",Hyde Park Road Side,LS6 1AG,Road Side,Hyde Park and Woodhouse,Y,LS6,22187,72136753,53.814317,-1.561899,435426,428943,Y,,Y,,,"Glass, Textile",1,,2,"1,217",620,"2,888",925,887,996,479,"1,452","1,120",532,923,"1,130",699,"1,810","1,535",787,635,479,,154,,,877,,877,"1,036","1,346",443,689,560,"1,199",696,383,332,572,743,8875,740
Ings Hotel,Ings Lane,LS20 9HR,Pub,Guiseley and Rawdon,,LS20,22068,72293019,53.881733,-1.720514,442874,418470,Y,,,,,Glass,1,,1,639,,"2,233",183,963,752,831,"1,090",,535,524,,576,,"2,493",339,662,,,,606,743,463,621,"1,096",750,257,213,725,543,632,558,413,350,249,801,6588,549
ITV Yorkshire,"Television House, 106 Kirkstall Road",LS3 1JS,Business,Armley,Y,LS3,22311,72112762,53.803145,-1.569971,434180,428419,Y,,,,,Glass,1,,3,,,,"1,280",,,,,,,,,,,,"1,505",,,,741,323,,0,,,975,"1,147",,540,,464,,,130,,,3257,651
John Smeaton Sports,Smeaton Approach,LS15 8TA,Leisure Centre,Cross Gates and Whinmoor,Y,LS15,22070,72187384,53.81337,-1.432994,435381,437431,Y,,,,,Glass,1,,1,628,393,706,540,988,672,"2,554",457,769,,742,634,465,517,"1,047",494,"1,319",517,,672,708,795,679,"1,012",543,"1,357",797,"1,509",484,704,735,636,"1,060","1,891",467,"1,184",11367,947
Kings Arms Public House,"Greenside, Pudsey",LS28 8PU,Pub,Pudsey,Y,LS28,22071,72283239,53.79163,-1.672128,432863,421697,Y,,,,,Glass,1,,1,925,778,665,383,"1,812",879,"1,642",,"1,201","1,674",380,"1,348",788,820,569,"1,430",723,,729,492,967,844,421,713,612,"1,420",797,"1,629","1,132","2,222","1,208",596,412,"1,046",467,965,12506,"1,042"
Kippax Ex Service Social Club,"Church Lane, Kippax",LS25 7HF,Social Club,Kippax and Methley,Y,LS25,22072,72555962,53.767271,-1.370275,430287,441606,Y,,,,,Glass,1,,3,"1,324",685,933,"1,408",,680,342,"1,626",831,544,"1,149",775,476,854,"1,044",800,821,,,,453,"1,500",926,474,"1,139",186,704,177,"1,755",175,"1,264",147,"1,481",346,,,7376,738
Kippax WMC,"Back Lane, Kippax",LS25 7QB,Social Club,Kippax and Methley,Y,LS25,22073,72324156,53.766402,-1.365752,430193,441905,Y,,,,,Glass,1,,3,,"1,906",,160,842,,341,"2,371",338,438,265,258,635,"1,236",348,909,568,823,539,308,279,913,,177,342,372,704,0,538,83,"1,174",0,833,0,546,,4593,418
Kippax Leisure Centre,"Station Rd, Kippax, Leeds", LS25 7LQ,Leisure Centre,Kippax and Methley,Y,LS25,,72555961,53.763924,-1.379867,429909,440977,Y,,,,,Glass,1,,1,,,,,,,,,,,,,,,,,,,,,,,,,,,,,,,,,,,,,,
Kirkstall Leisure,"Kirkstall Lane, Kirkstall Road",LS5 3BE,Leisure Centre,Kirkstall,Y,LS5,22074,72558232,53.816404,-1.601626,435643,426326,Y,Y,,,,"Glass, Paper",1,,1,,727,,,484,,318,248,,,564,,,,,644,,,,,,694,,,,539,"2,051",,,591,,279,,314,,0,3774,629
Layby,British Library,LS23 7BQ,Road Side,Wetherby,Y,LS23,22076,72672979,53.920219,-1.32549,447331,444396,Y,Y,,,,"Glass, Paper",1,,1,"1,118",860,"1,711","1,997","1,663",375,"1,422","2,869","2,251","2,938","1,575","1,587","1,392","1,648","2,658","1,558","1,495",307,"1,488",372,"2,158","2,890",895,"1,289","1,558",590,,967,"1,394","1,287","1,223","1,854","1,737",944,681,"1,326",13562,"1,233"
Layby,Pool Road,LS21 1DY,Road Side,Adel and Wharfedale,Y,LS21,22207,72344958,53.907623,-1.658638,445772,422524,Y,,,,,Glass,1,,2,"1,395","1,516","1,105",913,"1,462","1,164","1,042","1,703",,"1,925","1,379","1,027",,,,"1,256","1,459",240,"1,201","2,182","1,915","1,338",606,"1,027","1,226","1,998","1,247","2,188","1,305","1,619","1,733","1,642","1,106","1,492","1,589","1,326",18471,"1,539"
Layby,"Out Gang Lane, Bramley",LS13 2QY,Road Side,Armley,,LS13,23090,,53.811048,-1.624668,435039,424812,Y,,,,,Glass,2,,2,,,,,,,,,,,,,,,101,600,,205,,"1,102",326,"1,405",421,891,625,"1,126","1,183",918,997,0,281,464,208,"4,352","1,531",868,12554,"1,046"
LCC Offices,Knowsthorpe Gate,LS9 0NP,Council Office,Burmantofts and Richmond Hill,Y,LS9,21974,72696391,53.785355,-1.499804,432231,433054,Y,,Y,,,"Glass, Textile",1,,1,,383,,,,,,472,,,,,,344,,,,892,196,,,,237,,,,"6,311",,,,489,,0,,,,6800,"2,267"
Ledston Luck Enterprise Park,Ridge Road,LS25 7BF,Road Side,Kippax and Methley,Y,LS25,,72322752,53.771037,-1.349579,430718,442966,Y,,,,,Glass,1,,1,,,,,,,,,,,,,,,,,,,,,,,,,,,,,,,,,,,,,,
Leeds Bradford Airport,Compound near Terminal (nr to mid-stay c/p),LS19 7TU,Transport,Otley and Yeadon,Y,LS19,22077,72685022,53.869265,-1.659439,441504,422492,Y,,,,,Glass,1,,6,"5,503","6,657","8,166","4,118","3,995","4,675","8,076","4,372","2,285","3,564","2,400","2,417","3,140","5,134","8,074","5,646","8,550",742,482,153,,496,2,,460,,839,,"1,409","4,373",430,"1,952","1,567","1,247",806,"1,073",14157,"1,416"
Leeds City College (former Park Lane College),"Denison Road, Park Lane",LS3 1AA,Educational Facility,Armley,Y,LS3,22154,72721203,53.800445,-1.559006,433884,429143,Y,,,,,Glass,1,,1,,,665,,,,,282,,,281,382,,,606,620,852,534,,505,795,661,559,702,819,"1,408",572,307,0,235,685,749,637,557,452,151,6573,548
Leeds Golf Centre (former Wike Ridge Inn),"School Lane, Wike Ridge Lane",LS17 9JW,Leisure Centre,Harewood,Y,LS17,22306,72552817,53.873003,-1.494516,441985,433333,Y,,,,,Glass,1,,1,,,462,,,,,724,,,359,,,,411,165,,354,638,421,698,,,,,309,,341,,,175,,0,,0,,825,165
Leeds Golf Club,Elmete Lane,LS8 2LJ,Sports Club,Roundhay,Y,LS8,22078,72532671,53.836481,-1.487373,437925,433832,Y,,,,,Glass,1,,1,648,,"1,297",,,320,,"1,442",,,514,,763,,642,239,,600,470,376,,189,,557,,629,"2,051",328,,552,137,,650,,503,,4851,693
Leeds Prison,"2 Gloucester Terrace, Stanningley Road",LS12 2TJ,Prison,Armley,Y,LS12,23093,72079833,53.796477,-1.575262,433436,428075,Y,,,,,Glass,1,,1,,,,,,,,,,,,,,,,,,626,627,412,,,,,,,,,,,,,0,,,,0,0
Leeds West Indian Centre,10 Laycock Place,LS7 3JA,Community Centre,Chapel Allerton,Y,LS7,22083,72117299,53.812196,-1.536193,435201,430637,Y,,,,,Glass,1,,1,170,536,,324,606,,957,85,606,,524,176,269,,,605,,"2,329","1,450","1,257",464,,,,637,626,839,201,,354,218,,509,0,560,201,4144,414
Leodiensian Club,"Crag Lane, Alwoodley",LS17 5PR,Social Club,Alwoodley,Y,LS17,22084,72110488,53.855699,-1.569995,440027,428382,Y,,,,,Glass,1,,1,363,,,"1,317",,641,,155,,,563,,,622,527,,,,,,574,,410,,,,881,,190,,,326,,,,,1397,466
Lidl Halton,Selby Road,LS15 0DL,Supermarket,Temple Newsam,Y,LS15,23156,72661411,53.795059,-1.471573,433324,434906,Y,,,,,Glass & Paper,1,,4,,,,,,,,,,,,,,,,,,,,,,,"1,600",,"5,447","5,038","7,650","8,110","6,686","5,631","4,426","9,707","6,527","8,101","7,341","1,020",75684,"6,307"
Lidl Oulton,"60 Aberford Road, Oulton",LS26 8HP,Supermarket,Rothwell,Y,LS26,22088,72563523,53.750954,-1.448105,428429,436490,Y,,Y,,,"Glass, Textiles",1,,3,"8,101","6,378","10,179","7,275","9,102","5,101","8,179","9,078","13,802","12,729","10,397","10,043","8,247","11,918","11,430","10,101","10,007","7,634","3,506","1,179","11,095","12,055","8,286","8,108","12,925","10,790","10,066","11,523","7,619","7,696","10,675","8,998","13,308","12,687","11,088","9,639",127014,"10,584"
Lisker Drive Otley,Road Side,LS21 1DQ,Road Side,Otley and Yeadon,Y,LS21,22089,72639489,53.902207,-1.680486,445163,421091,Y,,,,,Glass,1,,1,"1,051","1,103",940,"1,385","1,620",541,250,"1,251","1,383","1,170","1,182","1,103",928,"1,097","1,097",796,"1,097",,,,"1,522","1,095","1,212","1,047","1,226","4,524",290,"1,271",807,"1,091",,"1,118","1,042",,925,"1,020",13314,"1,331"
Lord Darcy,618 Harrogate Road,LS17 8EH,Pub,Alwoodley,Y,LS17,22090,72534303,53.856286,-1.530111,440109,431005,Y,,,,,Glass,1,,1,993,722,"1,587","1,287","1,159","1,876","1,333","1,230",996,"1,313","1,406","1,200","1,418","1,410","1,443","1,256",964,,418,,997,"1,486",660,985,"1,474","1,377",488,"1,479","1,654",722,708,983,"1,509","2,193","1,351","1,377",15314,"1,276"
Mainline WMC,Pudsey Road,LS13 4LS,Social Club,Farnley and Wortley,Y,LS13,22091,72162285,53.795458,-1.619966,433306,425131,Y,,,,,Glass,1,,1,316,198,,635,92,,251,380,,633,597,286,534,160,202,376,181,,120,482,435,206,413,267,,563,,239,213,,147,,495,825,171,,2653,379
Manor Function Room,"Stoney Royd, Farsley",LS28 5JA,Business,Calverley and Farsley,,LS28,22093,72394321,53.813228,-1.678627,435264,421258,Y,,,,,Glass,1,,1,,,,,,241,,,,,,,,,,530,,382,117,253,,,,,,,,0,,,,,,,,,0,0
Meanwood Cricket Club ,Parkside Road,LS6 4NE,Sports Club,Moortown,,LS6,,72139056,53.83665,-1.571558,437907,428292,Y,,,,,Glass,1,,1,,,,,,,,,,,,,,,,,,534,714,,,,,,,,0,,,,,,,,,,0,0
Mecure Hotel Weatherby,"Leeds Road, Wetherby ",LS22 5HE,Hotel,Wetherby,Y,LS22,22179,72555119,53.924357,-1.387283,447754,440334,Y,,,,,Glass,1,,1,671,461,573,586,,580,407,,"1,228",233,468,409,593,568,"1,179",973,376,"2,871","3,508","3,175",442,839,346,533,524,525,"1,608",,997,486,"1,037",278,"1,013",146,0,272,6885,626
Meanwood Valley Urban Farm,Sugarwell Road,LS7 2QG,Business,Chapel Allerton,,,,72566639,53.820546,-1.552704,436123,429544,,Y,,,,Paper,,,0,,,,,,,,,,,,,,,,,,,,,,,,,,,,,,,,,,,,,,
Mercantile Club,"16 Commercial Street, Morley",LS27 8HN,Social Club,Morley South,Y,LS27,22099,72365814,53.746012,-1.599972,427812,426479,Y,,,,,Glass,1,,1,588,"1,266",484,237,627,,259,394,333,410,563,254,316,364,311,530,,"8,090","13,479","8,209",596,376,475,504,683,529,335,302,172,603,546,0,735,0,346,667,4919,410
Merlins,"Helston Road, Middleton",LS10 4PG,Pub,Middleton Park,,LS10,22100,72095841,53.75256,-1.560236,428556,429095,Y,,Y,,,"Glass, Textile",1,,1,322,158,,,446,137,600,,347,416,168,75,353,,,264,,,,,,,,,,,"7,650",,,,0,,240,0,,310,8200,"1,640"
Methley Cricket Club,"Church Side, Methley",LS26 8EF,Sports Club,Kippax and Methley,,LS26,22101,72565255,53.735499,-1.409408,426730,439056,Y,,,,,Glass,1,,2,"1,450","1,116","1,230","1,141","1,286","1,071","1,234","2,170","1,713",712,"1,454","1,300","1,689","1,280","1,326","1,348","1,745","1,070","1,579","1,069","1,663","1,237","1,976","2,581","2,057","2,392",290,"2,319","1,820","1,531","1,875","2,216","2,309","2,414","1,747","1,898",22869,"1,906"
Methley W.M.C ,"21 Pinfold Lane, Methley",LS26 9AA,Sports Club,Kippax and Methley,,LS26,22102,72380535,53.738065,-1.393898,427024,440077,Y,,,,,Glass,1,,1,488,891,"1,309",571,"1,139","1,044",904,"1,803","2,040","1,072","1,746","1,312","1,507",745,"1,602","1,176","1,167","1,056","1,247",521,"1,169","1,221","1,045","1,979","1,415","1,464",488,"1,370","1,382","1,180","1,592","2,205","1,452","1,440","1,180","1,424",16592,"1,383"
Mexborough Arms Public House,"Main Street, Thorner ",LS14 3DX,Social Club,Harewood,,LS14,22103,72385633,53.858721,-1.426497,440430,437818,Y,,Y,,,"Glass, Textile",1,,,384,754,591,"1,112",504,"1,483",886,526,868,"1,138",468,764,"1,472","1,318","1,089","1,376","1,318",,288,253,973,"1,039","2,189","1,020","1,060",626,336,"1,338","4,840",684,835,"1,365",200,"2,875","1,275","1,037",16472,"1,373"
Middleton Conservative Club,"4 Ring Road, Middleton",LS10 4AX,Social Club,Middleton Park,Y,LS10,22105,72170596,53.748282,-1.539005,428089,430498,Y,,,,,Glass,1,,3,161,416,249,766,74,564,300,354,277,498,759,300,560,547,,579,418,"1,058","3,348","2,985",165,938,319,236,,635,634,0,681,503,194,352,492,183,,465,4139,414
Moor Allerton Golf Club,"Syke Lane, Scarcroft",LS17 9NH,Sports Club,Harewood,Y,LS17,22107,72388356,53.869896,-1.480379,441646,434265,Y,,,,,Glass,1,,1,,,678,,673,,,634,183,726,,,534,,777,,402,,,,766,777,,278,,,335,511,,,367,,,,196,,1409,352
Moortown Rugby Union Football Club,"Moss Valley, Allwoodley",LS17 7NT,Sports Club,Alwoodley,Y,LS17,22110,72552524,53.856785,-1.554841,440154,429378,Y,,,,,Glass,1,,1,784,,,,,,,559,,,,,659,,667,,602,392,701,518,274,124,,464,,390,"2,165",,595,,275,505,306,,116,,4352,622
Moortown Social Club,Cranmer Gardens,LS17 5LA,Social Club,Alwoodley,Y,LS17,22111,72242542,53.848615,-1.554867,439245,429382,Y,,,,,Glass,1,,1,,,481,,,214,,155,"1,214",,437,,,622,351,,,457,345,,274,,,748,,531,732,,426,,275,440,,,233,565,3201,457
Morley United Services Club,"High Street, Morley",LS27 9AL,Social Club,Morley South,Y,LS27,22112,72350683,53.741861,-1.597782,427351,426626,Y,,,,,Glass,1,,1,,305,,,,,,531,,,,,,486,,,,"1,563","1,160","1,479",187,,,463,,641,975,,,345,,,,,,,1961,654
Morley W.M.C,"Fountain Street, Morley",LS27 9EH,Social Club,Morley South,Y,LS27,22113,72350235,53.742941,-1.603549,427469,426245,Y,,,,,Glass,1,,1,,,314,341,,513,300,488,166,425,,678,274,345,466,279,291,"1,880","1,107","1,331",595,344,,,179,343,634,,,,182,161,,508,0,"1,505",3511,439
Morrisons,"69 Town Street, Horsforth",LS18 5BP,Supermarket,Horsforth,Y,LS18,22115,72313089,53.838324,-1.640686,438068,423742,Y,Y,,,,"Glass, Paper",1,,8,"25,222","21,617","27,331","27,075","22,720","20,821","16,971","26,002","32,565","33,162","20,893","27,198","25,026","25,815","27,404","23,602","22,863",626,"1,300","1,281","29,861","30,576","25,733","25,223","28,851","27,252","24,004","28,306","22,304","19,085","22,857","19,866","25,777","25,567","17,279","23,548",284697,"23,725"
Morrisons,"Shopping Centre, Hunslet",LS10 2AP,Supermarket,City and Hunslet,Y,LS10,22116,72106174,53.779253,-1.529014,431539,431134,Y,Y,Y,,,"Glass, Paper, Small Electrical applicanes",1,,2,"3,526","3,371","5,198","4,721","5,381","3,568","4,777","3,759","7,010","5,631","7,244","5,313","4,657","4,287","6,091","5,625","2,942",186,787,210,"5,178","5,163","3,710","5,504","4,969","5,308",832,"4,596","3,540","3,923","5,069","3,982","9,355","4,434","4,434","4,638",55079,"4,590"
Morrisons,"1 Savins Mill Way, Kirkstall",LS5 3RP,Supermarket,Kirkstall,Y,LS5,22117,72507395,53.813169,-1.601869,435283,426312,Y,Y,Y,,,"Glass, Paper, Small Electrical applicanes",1,,4,"11,639","10,210","13,003","11,083","13,934","8,938","9,336","12,945","14,321","15,227","13,237","14,171","12,677","13,351","14,924","15,617","11,625",,240,,"12,563","14,764","11,456","16,159","14,332","11,055","6,287","10,081","6,361","5,782","11,265","3,956","15,195","11,113","10,533","13,612",119573,"9,964"
Morrisons,"Windsor Court, Morley",LS27 9BG,Supermarket,Morley South,Y,LS27,22118,72400031,53.745599,-1.603008,427765,426279,Y,Y,Y,,,"Glass, Paper",1,,6,"20,087","17,767","13,957","20,706","18,752","16,360","17,471","12,651","19,984","20,918","16,168","18,383","16,665","18,718","19,071","18,963","15,151",,,,"14,977","22,206","16,195","16,929","18,638","15,434",556,"18,760","19,943","16,002","17,278","7,442","16,045","11,560","13,488","17,845",172991,"14,416"
Morrisons,"1 Jail Yard Parade, Rothwell",LS26 0AF,Supermarket,Rothwell,Y,LS26,22119,72677116,53.748911,-1.479553,428186,434418,Y,Y,Y,,,"Glass, Paper, Small Electrical applicanes",1,,9,"10,309","12,951","20,373","14,300","16,367","14,034","12,464","13,173","17,350","18,007","11,645","17,802","14,381","17,929","15,907","12,691","11,110",,,,"12,304","15,914","15,148","12,773","14,189","21,249",,"18,174","11,151","14,397","15,641","11,540","14,716","15,172","15,343","9,972",161542,"14,686"
Morrisons,136 Swinnow Road,LS13 4DN,Supermarket,Armley,Y,LS13,22120,72551141,53.803652,-1.636184,434212,424058,Y,Y,Y,,,"Glass, Paper",1,,8,"21,803","21,776","22,562","24,547","29,623","20,977","21,143","22,033","26,787","27,111","21,905","25,075","23,245","24,198","24,906","25,150","20,927",,,786,"21,593","29,115","22,182","23,125","26,605","20,374","23,868","22,377","22,218","19,704","21,209","21,720","20,970","9,104","28,159","23,207",259514,"21,626"
Morrisons,"High Street, Yeadon",LS19 7PP,Supermarket,Otley and Yeadon,Y,LS19,22121,72564891,53.865811,-1.682588,441113,420971,Y,Y,Y,,,"Glass, Paper",1,,6,"12,386","16,652","12,189","18,023","17,293","10,113","8,522","15,215","17,802","10,751","16,320","11,416","13,308","16,322","11,635","10,311","10,967",712,240,393,"17,789","16,707","11,997","11,705","12,608","15,440","4,252","14,426","11,490","12,221","14,935","10,456","10,757","9,941","11,653","11,894",140074,"11,673"
Myrtle Tavern,Parkside Road,LS6 4NE,Pub,Moortown,,LS6,22123,72139055,53.836088,-1.570409,437845,428368,Y,,,,,Glass,1,,3,767,"1,161",,"2,886",,"1,306",,255,864,514,"1,450",,"1,032",657,702,,"1,508",742,,,,"1,298","1,243",462,512,"1,533","23,868",844,"2,292",,"1,471",281,235,796,595,760,33188,"3,017"
"Naburn Approach, near Pendas Arms","Car Park adj, Naburn Approach",LS14 2DF,Roadside,Cross Gates and Whinmoor,,LS14,23152,72721195,53.837273,-1.455514,438029,435928,Y,,,,,Glass,1,,1,,,,,,,,,,,,,,,,,,822,276,322,,,795,,"1,076",495,"1,534","1,234","3,678",686,"1,393",891,"1,473",633,464,"1,346",14903,"1,242"
New Farnley Community Centre,"Low Moor Side, Farnley",LS12 5EA,Community Centre,Farnley and Wortley,,LS12,23130,72071530,53.776226,-1.623599,431165,424903,Y,,,,,Glass,1,,2,,,,,,,,,,,,,,,,,,170,,556,,"2,383","1,549","2,971","1,579","3,658","2,397","1,246","2,552","2,955","1,194","3,878","3,653","6,906","3,737","2,581",36335,"3,028"
New Farnley Cricket Club,Lawns Lane ,LS12 5ES,Sports Club,Farnley and Wortley,Y,LS12,22003,72056638,53.783624,-1.623457,431988,424908,Y,,,,,Glass,1,,3,,"1,785",,"2,302","1,461",,"2,018",,"1,363","1,323",821,,534,868,"1,356","1,408",,"1,107",784,"1,573",876,,"2,048",,"2,390",,902,995,,"1,255",,"1,165","2,542",,"1,325",,10575,"1,511"
New Masons Arms,"26 Aberford Road, Oulton",LS26 8JR,Hotel,Rothwell,,LS26,22132,72380863,53.747863,-1.452179,428083,436224,Y,,,,,Glass,1,,1,314,"1,030",,510,"1,515",,683,785,342,545,354,344,558,415,777,559,246,"20,940","20,599",,650,575,,"1,043",,"1,160",75,677,574,432,284,"1,400",879,325,135,470,6411,583
New Moorside Social Club,Holborn Approach,LS6 2PW,Social Club,Hyde Park and Woodhouse,Y,LS6,22354,72236183,53.813534,-1.561624,435343,429569,Y,,,,,Glass,1,,2,,,,,,,,,,,,,,,,,,382,416,895,,,,,,"1,100",,395,,413,,140,260,155,0,664,3127,391
New Travellers Rest,"Ring Road, Crossgates",LS15 7PF,Pub,Killingbeck and Seacroft,,LS15,22182,72053730,53.808996,-1.453038,434884,436115,Y,,,,,Glass,1,,1,314,765,,,,965,"1,551",497,,,,,372,344,232,661,342,,,,746,177,509,558,358,594,919,552,717,437,0,588,657,629,312,164,5928,494
New Wortley Labour Club ,Oak Road,LS12 2HJ,Social Club,Armley,,LS12,22138,72147009,53.794664,-1.57361,433235,428185,Y,,,,,Glass,1,,1,,,,,,,673,,,,556,,,,699,,181,,,,209,,,621,,94,,204,,181,456,,325,0,,298,1558,223
North Parade Car Park (formerly  The Licks Car park),"Cattle Market Street, Otley ",LS21 1BQ,Car Park,Otley and Yeadon,Y,LS21,22087,72339909,53.907119,-1.692748,445706,420283,Y,Y,,,,"Glass, Paper, Small Electrical applicanes",1,,7,"5,540","9,915","6,754","8,382","7,588","5,910","5,718","7,156","11,999","4,624","11,467",,"6,921","9,860","5,537","7,017","7,887",,180,,"12,576","7,081","6,239","7,457","7,234","6,578","8,756","11,149","7,542","8,461","10,795","5,425","7,761","7,170","7,624","7,857",96352,"8,029"
North Sea Chinese Restaurant,"40 Town Street, Stanningley, Pudsey",LS28 6EZ,Restaurant,Bramley and Stanningley,Y,LS28,22139,72557466,53.807921,-1.660521,434679,422453,Y,,,,,Glass,1,,2,,297,"1,490",91,"1,970",,627,570,234,821,,477,,521,,"1,148",172,361,541,,574,,571,390,,577,386,"2,049",,157,330,,,,,,3498,700
Old Masons Arms Public House,"59 Aberford Road, Oulton",LS26 8JA,Pub,Rothwell,Y,LS26,22143,72380884,53.750587,-1.450354,428387,436342,Y,,,,,Glass,1,,1,"1,091",,473,,741,405,735,893,512,407,265,317,835,410,418,330,328,,234,,596,"1,009",984,"1,223",262,"1,177",149,593,702,360,284,"1,617",807,735,181,632,7500,625
Old White Hart Public House,"Town Street, Beeston",LS11 8BZ,Pub,Beeston and Holbeck,Y,LS11,22146,72217684,53.772307,-1.567661,430750,428592,Y,,,,,Glass,1,,1,,,"1,461",,406,824,,,570,,375,182,,434,350,256,,425,,308,,347,,278,,390,"1,263",213,914,,79,,,0,,,2859,477
Otley Social Club,"Hollin Gate, Otley",LS21 2DP,Social Club,Otley and Yeadon,,LS21,22151,72343523,53.914117,-1.713097,446479,418943,Y,,,,,Glass,1,,1,419,,,154,,571,,,471,,,479,,476,,86,466,589,545,334,633,,386,,303,326,861,397,,,466,,446,205,,467,3472,434
Oxley Hall - University of Leeds,"Oxley Hall, Weetwood Lane",LS16 8HL,Student Accomodation,Weetwood,,LS16,22082,72224780,53.835753,-1.58769,437801,427231,Y,,,,,Glass,1,,1,,,,,,271,,,,,,,,,,,,"14,851","17,718","15,866",,,,,,,,,0,,,,,,299,376,675,225
Piccolino,"Wetherby Rd, Collingham, Wetherby",LS22 5AY,Restaurant,Weatherby,Y,LS22,,72568769,53.909048,-1.404709,446041,439204,Y,,,,,Glass,1,,1,,,,,,,,,,,,,,,,,,,,,,,,,,,,,,,,,,,,,,
Peggy Tub Social Club,Woodhouse Hill Road,LS10 2EF,Social Club,City and Hunslet,Y,LS10,22159,72236004,53.771033,-1.525586,430626,431366,Y,,,,,Glass,1,,3,456,660,"1,482",,"1,454",684,467,"1,002",208,828,844,591,480,638,,"1,057",562,,,,154,669,422,432,429,937,384,320,85,,489,704,160,366,,"2,395",6269,627
Podger Public House,"Ninelands Lane, Garforth",LS25 1NT,Pub,Garforth and Swillington,Y,LS25,22161,72537504,53.79277,-1.376922,433120,441143,Y,,,,,Glass,1,,3,"1,745",538,"3,699",,"3,144","2,058","1,204",779,"1,828","2,164","1,933","1,031","1,598","2,365","1,475","1,526","1,191",366,"1,150",720,"1,327",995,,"1,860",907,"3,394","1,129","3,987","1,064","1,249","1,594","2,269",79,"2,030",,701,18403,"1,673"
Potternewton Heights,Off Potternewton Lane,LS7 3DD,Road Side,Chapel Allerton,Y,LS7,22163,72160258,53.825054,-1.540717,436630,430330,Y,,,,,Glass,1,,1,606,,,,788,320,,,,,580,,716,,469,0,,899,"1,413",972,374,375,,,,"1,014",0,,,,,,235,,206,,1454,364
Priesthorpe School,"Preisthorpe Lane, Pudsey",LS28 5SG,Educational Facility,Calverley and Farsley,Y,LS28,22165,72277866,53.80997,-1.687141,434899,420699,Y,,,,,Glass,1,,1,,,,,504,,,190,,,,,,,,177,,479,190,298,,,,,,,,,,,,,,,,,0,#DIV/0!
Pudsey Bowling Club,Windmill Hill,LS28 8JQ,Sports Club,Pudsey,Y,LS28,22168,72282047,53.790373,-1.67566,432722,421465,Y,,,,,Glass,1,,1,316,,,91,851,,752,285,390,725,274,96,,174,354,150,,"6,544","3,817","4,778",,663,109,,714,469,505,142,890,761,200,136,997,,545,357,5714,519
Pudsey Civic Hall,"Dawson Corner, Pudsey",LS28 5TA,Council Office,Calverley and Farsley,Y,LS28,21956,72557325,53.80733,-1.681299,434607,421085,Y,Y,,,,"Glass, Paper",1,,3,"1,003",730,748,"1,300","2,278",861,"1,289",165,"2,582",756,"1,235","1,421",504,"9,704",,737,792,557,627,718,"1,154",660,801,706,383,"1,166","1,479",565,298,724,399,983,"1,811","5,560",608,"1,096",15072,"1,256"
Pudsey Leisure Centre,"Market Square, Pudsey",LS28 7BE,Leisure Centre,Pudsey,Y,LS28,22169,72394387,53.795451,-1.66261,433291,422322,Y,,,,,Glass,1,,3,"3,868","3,555","4,988","4,833","4,610","3,249","3,060","5,360","6,850","5,267","4,458","5,805","1,535","4,487","6,133","5,014","4,522",354,364,326,"6,023","5,050","4,656","5,708","5,617","2,122","5,513","5,137","4,369","2,817","4,465","4,863","4,130",,"8,174","5,948",53155,"4,832"
Queens Hotel,"Hope Street, Morley",LS27 8DY,Pub,Morley South,Y,LS27,22172,72359273,53.744935,-1.600664,427692,426434,Y,,,,,Glass,1,,3,"3,339","4,481","3,424","2,855","4,373","2,960","3,070","4,407","3,668","3,306","3,854","3,289","2,918","4,020","3,624","3,431","3,688","1,022",472,833,"4,061","4,323","2,641","3,247","3,527","3,525","2,570","3,546","1,980","3,026","2,831","2,043","2,739","2,525",417,"3,150",31879,"2,657"
Raging Bull Boxing Club ,Rookwood Road,LS9 0NJ,Sports Club,Burmantofts and Richmond Hill,,LS9,22540,72560924,53.79908,-1.4912,433762,433610,Y,,,,,Glass,1,,,,,370,,,,5,,,,,,,718,,227,,,"3,375","2,606",,,485,,,,670,,,,,,,,754,,1425,712
Ramada Jarvis,Otley Road,LS16 8AJ,Hotel,Adel and Wharfedale,Y,LS16,22178,72681049,53.867714,-1.592485,441355,426895,Y,,,,,Glass,1,,3,"1,456",700,717,"1,422",896,844,,"1,584",931,"1,176",754,,987,,"1,098",446,,"5,302","4,531","4,654",573,678,,,"1,072",,"1,608",,,,871,528,,,598,0,4676,779
Rawdon and Guiseley Conservative Club,24 Leeds Road ,LS19 6NL,Social Club,Horsforth,Y,LS19,22180,72290489,53.850097,-1.681552,439365,421047,Y,,,,,Glass,1,,1,324,,"1,264",549,610,,940,924,506,338,,192,,,,560,,,,,191,,184,,268,267,197,,98,,,,211,147,0,,1188,170
Rawdon Library/Micklefield House ,"New Road Side, Rawdon",LS19 6DF,Council Office,Guiseley and Rawdon,Y,LS19,22104,72553282,53.853345,-1.686194,439725,420740,Y,Y,,,,"Glass, Paper",1,,3,"6,124","8,855","6,697","5,736","9,009","6,072","4,681","7,235","10,869","7,725","8,348","6,382","6,068","9,368","8,565","7,472","9,566",,,,"11,337","10,195","7,924","6,793","7,990","9,825","7,846","9,797","7,265","6,746","7,611","6,530","6,513","6,779","7,119","7,031",91054,"7,588"
Roadside,"Cragside Cresent, Hawksworth",LS5 3QU,Roadside,Kirkstall,Y,LS5,22047,72028936,53.828137,-1.617031,436943,425305,Y,,,,,Glass,1,,,,,,,,,,,,,,,,,,,,,,,,,,,,,"13,150",,,,,372,"1,213",326,542,456,16059,"2,676"
Roadside,"Fairfield Mount ( Stanningley Road), Bramley",LS13 3EE,Road Side,Bramley and Stanningley,Y,LS13,23187,72066646,53.807236,-1.643528,434608,434608,Y,,,,,,,,,,,,,,,,,,,,,,,727,,,,,,,,,,,,"1,699",,0,0,,174,0,419,299,357,2948,369
Roadside,"Burton Row, (oppo. The Blooming Rose pub)",LS11 5NX,Roadside,Beeston and Holbeck,,LS11,23140,72033983,53.779602,-1.541354,431572,430321,Y,,,,,Glass,1,,1,,,,,,,,,,,,,,,,,,763,901,492,,411,,371,,629,,298,409,,451,254,,"3,137",,296,5473,782
Roadside,Cottingley Drive (nr Dulverton Square),LS11 0LL,Road Side,Beeston and Holbeck,,LS11,21971,,53.765875,-1.583917,430035,427525,Y,,Y,,,Glass,1,,1,,704,262,,,354,,,,,,,,,350,256,,"1,063",627,330,,,,742,,577,310,,719,,603,,317,,"1,594",753,4873,696
Roadside,Cottingley Drive (nr Dulverton Grove),LS11 0LD,Road Side,Beeston and Holbeck,,LS11,21972,,53.768372,-1.587419,430305,427292,Y,,,,,Glass,1,,1,,,698,,,177,269,,"1,991",960,417,,,,350,171,,"1,578",,"1,783",,617,,371,,289,310,,360,,302,,211,,0,188,1660,237
Roadside,Cottingley Drive (nr Cottingley Fold),LS11 0JZ,Road Side,Beeston and Holbeck,,LS11,21973,,53.771104,-1.58415,430610,427506,Y,,,,,Glass,1,,1,,101,175,,,265,404,,,411,,,,,578,,,"1,753","1,413","1,463",,,,186,,,0,,0,,201,,0,,,0,201,40
Roadside,Nassau Place,LS7 4BX,Road Side,Chapel Allerton,Y,LS7,22125,72080927,53.815337,-1.529773,435553,431057,Y,,,,,Glass,1,,1,725,"1,048",716,904,"1,814",944,973,"1,495","1,825","1,020","1,150","1,266","1,023","1,231","1,109","1,101",957,"21,431","29,628","16,008",978,"1,549",729,289,794,"1,395",580,443,858,835,"1,403",927,"1,390","1,149","1,026","1,209",12008,"1,001"
Roadside,"Beech Avenue, Armley",LS12 3AH,Road Side,Armley,Y,LS12,22191,72741114,53.79769,-1.589588,433565,427131,Y,,,,,Glass,1,,1,558,851,641,"1,300",484,"1,254","1,340",248,"1,227",844,380,"1,774",853,"1,231","1,878","1,889","1,415",,,,"1,508","1,752","1,674","2,021","1,439","1,557","1,548",953,"2,156","1,480","1,897","1,072","1,241","3,231","2,040",,18614,"1,692"
Roadside,Corner of Tynwald Hill and Cranmer Bank,LS17 5LB,Road Side,Moortown,Y,LS17,23170,72051470,53.847044,-1.557092,439069,429237,Y,,,,,Glass,1,,1,,,,,,,,,,,,,,,,,,,,,,,,,,,,,,,,,,,71,1026,1097,548
Roadside,Headingley Mount,LS6 3JX,Road Side,Headingley,,LS6,22195,72094334,53.821471,-1.584439,436213,427454,Y,,Y,Y,,"Glass, textile, small electrical appliances",1,,1,"1,560",683,"1,072",780,454,"1,378",707,750,"1,660","1,000",827, ,874,923,984,167,179,903,"1,466",757,683,575,554,346,546,"1,302",273,"1,030","1,096",314,"1,212",670,,421,449,721,8034,730
Roadside,Queens Road,   LS6 1HU,Road Side,Hyde Park and Woodhouse,,LS6,22198,72521987,53.807661,-1.570518,434682,428380,Y,,Y,Y,,"Glass, textile, small electrical appliances",1,,2,607,449,365,"1,010",276,488,"1,066",792,953,666,"1,119",,"1,155",,,742,528,664,"1,012",360,744,418,413,449,,711,664,"1,838",766,512,650,480,"1,071","1,119",,201,8012,801
Roadside,Stanmore Hill,LS4 2PW,Road Side,Kirkstall,,LS6,22202,72113670,53.811674,-1.583583,435124,427517,Y,,Y,Y,,"Glass, textile, small electrical appliances",1,,1,"1,902","1,082","1,001","1,290","1,418",605,"1,280","1,026","1,678","1,421","1,267","1,293","1,685","1,463","2,111","1,856","1,399","1,272","1,096","1,030","1,154","1,346","1,947","1,975","1,963","1,210","2,247","1,679","1,525","1,198","1,466","1,106","1,139","2,102",579,"1,389",17603,"1,467"
Roadside,Vicarage Terrace,LS5 3HF,Road Side,Kirkstall,Y,LS5,22204,72221898,53.81884,-1.597572,435915,426591,Y,,,,,Glass,1,,1,747,"1,094",829,"1,190",484,"1,372","1,548",413,"1,951",356,467,967,878,"1,187",625,928,"1,149",382,"1,008",785,946,703,822,702,"1,104","1,348","1,344",839,,"2,191",,"1,266","1,897",,"1,341",645,11975,"1,331"
Roadside,Temple View Road,LS9 9LH,Road Side,Halton,,LS9,22350,72766028,53.79579,-1.515381,433385,432020,Y,,,,,Glass,,,,,,,,,,238,,,,,,,,634,502,137,731,"1,216",830,330,689,376,"1,257",429,463,199,175,690,378,,293,160,0,,667,3453,345
Roadside,"Moorside Road, Driglington",BD11 1EP,Road Side,Morley North,Y,BD11,22109,72353516,53.753548,-1.656294,428631,422761,Y,,,,,Glass,1,,3,"3,314","4,087","2,803","1,741","4,598","2,604","2,787","4,404","3,850","2,683","2,688","3,653","3,356","2,306","4,658","2,552","5,455","8,080","8,978","8,099","4,418","3,742","3,972","2,907","2,382","4,838","19,130","3,584","2,705","2,311",,"2,037","3,386","3,184","2,193","4,207",49958,"4,542"
Roadside,"Weston Ridge, Otley",LS21 2EF,,,,,22206,,,,,,,,,,,,,,,991,866,946,927,"1,338",855,673,817,"1,479","1,299",780,"1,012",968,835,"1,142",605,"1,221",,,,"1,318",938,829,940,926,"1,102","1,319","1,771",634,,,,,,,,,
Roadside,Batcliffe Mount,LS6 3PW,Road Side,Weetwood,,LS6,22190,72192450,53.822377,-1.587959,436313,427222,Y,,,,,Glass,1,,1,"1,277","1,079","2,219","1,410","2,158","2,399","2,013","1,965","3,131","2,260","2,279","2,020","2,538","2,775","2,330","2,359","2,758",240,,,"2,512","2,436","1,616","1,692","2,191","3,202","1,851","2,197","2,111","1,369","2,473","1,733",903,"1,752","1,759","1,805",23347,"1,946"
Roadside,"1 - 3 Burley Road, Marston House",LS3 1JZ,Road Side,Burley,Y,LS3,22603,,,,,,Y,,,,,Glass,1,,1,,,,,,,,,,,,,,,,,,,,,,,,,,,,,,,,,,,,,,
Roadside,"Tranmere Court, Bradford Road",LS20 8NH,Road Side,Guiseley and Rawdon,,LS20,,,53.876644,-1.724981,442307,418179,,Y,,,,Paper,,,0,,,,,,,,,,,,,,,,,,,,,,,,,,,,,,,,,,,,,,
Roadside,Canterbury Drive,LS6 3DY,Road Side,Headingley,,LS6,22192,72115548,53.818451,-1.58904,435875,427153,Y,,,,,Glass,1,,1,433,730,,421,541,477,"1,058",535,316,"1,213",435,504,162,808,751,173,197,,,,724,,622,461,728,536,"1,005",483,"1,003",99,748,474,534,420,327,729,7086,590
Roadside,"Elland Road, Churwell Hill",LS27 7PT,Road Side,Morley North,Y,LS27,22193,72348866,53.758442,-1.593745,429197,426882,Y,,,,,Glass,1,,2,"3,168","7,129","3,394","4,430","6,915","3,240","2,795","5,349","4,824","5,332","4,144","4,255","3,283","4,260","4,388","3,535","4,802",,,,"4,526",,"3,647","3,236","4,100","5,022","4,506","6,615","3,751","2,695","3,412","1,983","2,968","2,915","3,253","4,810",46031,"3,836"
Roadside,St Marks Road,LS2 9EG,Road Side,Hyde Park and Woodhouse,,LS2,22200,72725497,53.812286,-1.555302,435203,429379,Y,,,,,Glass,1,,1,200,457,612,147,563,286,444,709,882,415,,696,324,919,312,514,302,338,"1,051","1,443",815,371,620,312,620,385,377,714,0,"9,675",672,239,690,583,579,193,14727,"1,227"
Roadside,"Street Lane, Gildersome",LS27 7JB,Road Side,Morley North,Y,LS27,22248,72356110,53.757762,-1.632362,429108,424336,Y,,,,,Glass,1,,3,"6,341","7,589","6,920","7,183","8,608","5,886","5,924","7,962",,"8,624",,,,,"6,933","6,664","7,966","1,441","1,551","2,636","6,988","8,595","5,880","5,418","6,472","8,587","2,829","9,620","5,646","5,027","5,160","4,409","4,584","4,902","4,833","7,117",69186,"5,766"
Roadside,Stott Road,LS6 1DL,Road Side,Headingley,,LS6,22340,72169372,53.814881,-1.574543,435484,428110,Y,,Y,,,"Glass, textile",1,,1,554,454,"1,290",,652,215,362,490,293,744,469,933,537,318,570,670,493,,717,"1,244",649,334,362,346,454,379,636,652,828,219,511,478,177,216,624,302,5474,456
Roadside,"Station Lane, East Ardsley",WF3 2FJ,Road Side,Ardsley and Robin Hood,,WF3,22965,,53.733793,-1.535605,426478,430733,Y,,,,,Glass,1,,1,,"1,313",,,,,,,,,,,"1,388",,"1,164","1,968","1,746",,,,,,,"1,693","1,480","2,326",,,"1,099","2,721","1,596","1,413","1,293","1,205","1,740","2,297",17170,"1,717"
Roadside,Wakefield/Leeds Road,WF3 3LU,Road Side,Ardsley and Robin Hood,,WF3,22205,,53.720826,-1.49772,425053,433242,Y,,,,,Glass,1,,1,669,"1,568",563,"1,248","1,586",948,693,"1,158",887,537,"1,456","1,720",873,"1,643",978,"1,339","1,622","3,312","3,124","2,001","1,369",726,"1,384","1,438","1,627","1,853","1,524",,"1,702","1,162","2,052","1,116",999,488,"1,142","1,170",14835,"1,349"
Roadside,Woodhouse Street/Pennington Street,LS6 2JW,Road Side,Headingley,,LS6,,72157375,53.814344,-1.555288,435432,435432,,,Y,,,Textiles,1,,1,,,,,,,,,,,,,,,,,,,,,,,,,,,,,,,,,,,,,,
Roadside,"Old Bradford Road, Bradford Road",BD11 1EB,Road Side,Morley North,,BD11,22141,72352703,53.750579,-1.641586,428305,423732,Y,,,,,Glass,,,,642,543,618,307,846,788,190,"1,087","1,195",580,737,848,559,70,937,357,282,818,,308,611,"1,049",636,329,240,905,687,320,241,298,344,469,405,570,696,405,5579,465
Roadside,"Old Run Road, Belle Isle, Middleton",LS10 3AU,Road Side,City and Hunslet,Y,LS10,22109,72538053,53.771495,-1.535626,430673,430704,Y,,,,,Glass,1,,3,322,426,526,341,446,537,467,100,164,349,589,264,539,456,,340,630,914,392,420,859,690,445,563,858,810,597,573,169,503,744,735,,,495,304,5790,579
Roadside,Lingwell Gate Lane ,WF3 3BX,Road Side,Ardsley and Robin Hood,,WF3,22964,,53.735981,-1.522147,426728,431619,Y,,,,,Glass,1,,1,,"1,964","2,123","1,649","1,885",,"1,018","1,609","1,612",,,,,,"1,942","1,675",,84,587,582,"1,759","2,490","1,913","1,931","2,057","2,032",950,"2,359","1,563","1,577","1,183",802,,"1,464","1,826","2,269",18081,"1,644"
Roadside,Smithy Lane,WF3 1QQ,Road Side,Ardsley and Robin Hood,,WF3,23158,72363046,53.728193,-1.564004,425844,428863,Y,,,,,Glass,1,,2,,,,,,,,,,,,,,,,,,,,,,,,,,,,,,,,,,,,,,
Roadside,"Stanningley, Rossefield Lawn",LS28 6BN,Road Side,Bramley and Stanningley,Y,LS13,22212,72510531,53.80595,-1.6286823,434513,424527,Y,Y,,,,"Glass, Paper",1,,2,394,198,,545,500,,,190,468,446,,584,345,244,,442,717,"2,302","3,898","3,346",719,174,,"1,232","1,132",909,"1,107","1,093","1,132",181,"2,025",884,"1,957","1,217",498,"1,169",13305,"1,109"
Roadside,Cartmell Drive ,LS15 0AR,Road Side,Temple Newsam,,LS15,22364,72086540,53.789019,-1.482673,432647,434180,Y,,,,,Glass,1,,1,,,,,,,,,"1,598",581,,,,,,,,,,556,165,,,431,,,919,310,,345,290,,482,,754,,3100,517
Roadside,"Oakwell Road, Drighlington",BD11 1DS,Roadside,Morley North,,BD11,22553,72352438,53.751996,-1.650567,428460,423139,Y,,,,,Glass,1,,2,,,,,,,79,181,,311,366,,,172,,,72,"1,667","1,561","1,742",468,399,6,185,479,616,552,401,241,0,434,777,723,463,295,203,5183,432
Roadside,Cross green Lane ,LS9 0BD,Road Side,Burmantofts and Richmond Hill,,LS9,22983,72054221,53.789184,-1.515647,432650,432007,Y,,,,,Glass,1,,1,,,"3,960",,"19,545","26,423","10,323","15,998","31,829","31,213","25,514","21,800","21,702","28,733",548,185,583,"3,299","5,744","5,122",,,,,,"1,080",,413,,0,194,,160,,0,667,2514,359
Roadside,"Village Green, Fewston Avenue/Cross Green Ln",LS9 0DD,Road Side,Burmantofts and Richmond Hill,,LS9,22276,72054113,53.789278,-1.519894,432658,431727,Y,,,,,Glass,1,,1,,,,,,,,,,,,,,,,,,,,,,,,,,,,,,,,,,,,,,
Roadside,Cottingley Drive (Cottingley Towers),LS11 0JH,Road Side,Beeston and Holbeck,,LS11,21973,,53.768673,-1.583092,430340,427577,Y,,,,,Glass,1,,1,,,698,,,177,,,"1,991",960,417,,,,,,,617,,550,,,,,,,"8,254",,,,,,,,,,8254,"8,254"
Roadside,"Calverley Ln, Horsforth, Leeds ",LS13 1NP,Road Side,Horsforth,,LS13,22336,,53.828618,-1.661343,436980,422391,Y,,,,,Glass,1,,,,,,,,,,,,,,,,,,,,,,,,,421,,,,598,,,,,174,"1,103","2,360","1,154","1,189",6578,"1,096"
Roadside,Spring Road,LS6 3BW,Road Side,Headingley,,LS6,22323,72679662,53.815805,-1.57066,435588,428365,Y,,Y,,,"Glass, Textile",,,1,,,,,,,,,,,,,,,677,266,551,,,,544,418,318,230,531,653,328,748,676,384,793,947,734,498,598,907,7797,650
Roadside,"Weatherby Road Layby, north side",LS22 5DR,Road Side,Weatherby,Y,LS22,22348,72388485,,,,,Y,,,,,Glass,1,,2,,,,,,,,,,,,,,,,,,,,,,,,,,,,,,,,,,,,,,
Roadside,"Weatherby Road Layby 2, South Side",LS22 5DR,Road Side,Weatherby,Y,LS22,22348,72388485,53.918439,-1.395456,447198,439802,Y,,,,,Glass,1,,2,"3,447","4,351","4,313",,"3,263","2,237","3,397","5,737","5,613","5,926","3,727","4,724","6,019","2,994","4,449","4,466","2,523",,385,73,"5,209","5,964","4,155","5,551","4,488","2,450",488,"12,815","8,480","6,757","1,456","12,311","10,826","2,193","3,530","1,889",67682,"5,640"
Roadside,"Beeston Road, Entrace to Park",LS11 7NA,Road Side,Beeston and Holbeck,Y,LS11,,,53.777112,-1.558704,431288,429179,Y,,,,,Glass,1,,1,,,,,,,,,,,,,,,,,,,,,,,,,,,,,,,,,,,,,,
Roadside,"Ghyll Royd, Guiseley, Yeadon, Leeds ",LS20 9LT,Road Side,Guiseley and Rawdon,Y,LS20,,72668472,53.867235,-1.706707,441265,419384,Y,,,,,Glass,1,,2,,,,,,,,,,,,,,,,,,,,,,,,,,,,,,,,,,,,,,
Roadside,"Weatherby Road Layby, south side",LS22 5DR,Road Side,Harwood,Y,LS22,Unknown,72390615,53.920776,-1.395264,447351,439813,,,,,,,,,,,,,,,,,,,,,,,,,,,,,,,,,,,,,,,,,,,,,,,
Roadside ,"Smithy Lane, Fomer Garages, East Ardsley",WF3 1QQ,Roadside,Ardsley and Robin Hood,Y,WF3,23158,,53.728546,-1.563949,425883,428867,,,,,,,,,,,,,,,,,,,,,,,,,,,,,,,,,"2,454","1,439","2,440","2,809","3,335","2,421","2,721","2,189","2,885","2,849","1,993","2,863",,,
Roadside,Glossop Road / hartley Crescent,LS6 2LL,Road Side,Woodhouse,,LS6,,72092430,53.816636,-1.553018,435688,429526,,,Y,,,Textiles,1,,,,,,,,,,,,,,,,,,,,,,,,,,,,,,,,,,,,,,,,
Roadside,St Michaels Lane/ Stanmore Hill,LS6 3BR,Road Side,Headingley,,LS6,,72198657,53.810513,-1.58508,434993,427419,,,Y,,,Textiles  ,1,,,,,,,,,,,,,,,,,,,,,,,,,,,,,,,,,,,,,,,,
Roadside,Archery Road/Blenheim Square,LS2 9AU,Road Side,Woodhouse,,LS6,,72005069,53.808053,-1.548678,434735,429818,,,Y,Y,,"Textiles, WEE",1,,,,,,,,,,,,,,,,,,,,,,,,,,,,,,,,,,,,,,,,
Roadside,Bennett Road,LS6 3HN,Road Side,Headingley,,LS6,,72559009,53.82048,-1.577417,436106,436106,,,Y,,,Textiles,1,,,,,,,,,,,,,,,,,,,,,,,,,,,,,,,,,,,,,,,,
Roadside,Victoria Road,LS6 1AS,Road Side,Hyde Park and Woodhouse,,LS6,,72222298,53.814961,-1.564435,435497,428776,,,Y,,,Textiles,1,,,,,,,,,,,,,,,,,,,,,,,,,,,,,,,,,,,,,,,,
Roadside,"St, Peters Square ",LS9 8AH ,Road Side,City Centre,Y,LS9,,72573174,53.797228,-1.533471,433537,430827,Y,,,,,Glass,1,,1,,,,,,,,,,,,,,,,,,,,,,,,,,,,,,,,,,,,,,
Roadside,Maude St' Car Park,LS2 7DJ,Road Side,City Centre,Y,LS2,,72562342,53.795087,-1.534698,433298,430748,Y,,,,,Glass,1,,1,,,,,,,,,,,,,,,,,,,,,,,,,,,,,,,,,,,,,,
Roadside,Armouries Way ,LS10 1PJ,Road Side,City and Hunslet,Y,LS10,,N/A,53.792685,-1.534359,433031,430772,Y,,,,,Glass,1,,1,,,,,,,,,,,,,,,,,,,,,,,,,,,,,,,,,,,,,,
Roadside ,"Robin Hood, Wakefield Road, Robin Hood",WF3 3BH,Road Side,Ardsley and Robin Hood,Y ,WF3,22199,72371985,53.736392,-1.506665,426781,432640,Y,,,,,Glass,1,,1,"1,278","2,113","1,001","1,236","1,511","1,010","1,007","1,584","1,639","1,616","1,884","1,286","2,247","1,718",,"1,350","1,580",,177,,"1,253","1,678","1,218","1,326","1,632","1,698","1,023","2,048","1,542","1,167","1,678","1,593",864,"1,157","1,164","2,475",18039,"1,503"
Roadside ,Atkinson Street,LS10 1QB,Road Side,City and Hunslet,,LS10,22391,,53.785038,-1.526284,432184,431310,Y,,,,,Glass,4,,,365,749,"1,224",371,843,"1,356",500,871,826,791,284,401,"1,149",729,773,755,"1,062",,,,578,959,993,708,400,944,307,"1,100",517,809,581,704,648,183,173,808,7175,598
,,,,,,,,,,,,,,,,,,,,,,,,,,,,,,,,,,,,,,,,,,,,,,,,,,,,,,,,,,,
Roadside ,"Brackenwood Drive, Bus Turning Circle",LS8 1QA,Road Side,Roundhay,Y,LS8,,72025505,53.832016,-1.522348,437412,431534,Y,,,,,Glass,1,,2,,,,,,,,,,,,,,,,,,,,,,,,,,,,,,,,,,,,,,
Roadside,Pepper Road,LS10 2AJ,Road Side,City and Hunslet,Y,LS10,,72565875,53.773553,-1.522028,430908,431599,Y,,,,,Glass,1,,1,,,,,,,,,,,,,,,,,,,,,,,,,,,,,,,,,,,,,,
Roadside,Garnet Place,LS11 5JF,Road Side,Beeston and Holbeck,Y,LS11,,72075857,53.775899,-1.542618,431179,430236,Y,,,,,Glass,1,,1,,,,,,,,,,,,,,,,,,,,,,,,,,,,,,,,,,,,,,
Roadside,Birch Drive,LS25 7DU,Road Side,Kippax and Methley,Y,LS25,,72326552,53.775224,-1.379297,431167,441004,Y,,,,,Glass,1,,3,,,,,,,,,,,,,,,,,,,,,,,,,,,,,,,,,,,,,,
Robin Lane Club formerly Royal British Legion Club,"Robin Lane, Pudsey",LS28 7BR,Social Club,Pudsey,Y,LS28,21933,72567612,53.794986,-1.660185,433240,422482,Y,,,,,Glass,1,,1,"1,112","1,025","1,345","1,187","2,046","1,021",344,"1,919","2,482","2,321",960,"2,259","1,604","1,437","2,248","1,639","1,881",,544,,"2,898","1,669","1,968","2,058","1,875","1,387","2,032","2,023","1,516",889,"1,319","2,010","1,578","2,007",635,"1,841",19113,"1,593"
Rocol,"Wakefield Road, Swillington",LS26 8BS,Business,Garforth and Swillington,,LS26,22209,72524885,53.770939,-1.416633,430669,438547,Y,,,,,Glass,1,,1,,,390,,,,,,,,,,,,,326,,559,514,539,,,,224,,,636,,,,,,,,156,,792,396
Rossefield Manor,Rossefield Lawn,LS13 3RU,Road Side,Bramley and Stanningley,,LS13,22212,72681490,53.807311,-1.628232,434622,424580,Y,Y,,,,"Glass, Paper",1,,,,,,,,,,,,,,,,,,,,,,,,,,,,,,,,,,,,,423,85,508,254
Rothwell Athletic and Squash Club,"Royds Lane, Rothwell",LS26 0BE,Sports Club,Rothwell,Y,LS26,22213,72377624,53.746378,-1.47179,427908,434932,Y,,,,,Glass,1,,3,210,"1,466",,318,916,"1,232","1,541",846,901,"1,130",679,524,"1,009",820,697,"1,029",535,287,,380,957,699,494,905,948,769,"1,651",701,"1,478",436,381,110,"1,704",803,655,838,10474,873
Rothwell Labour Club,"Fifth Avenue, Rothwell",LS26 0HG,Social Club,Rothwell,Y,LS26,22214,72376599,53.755863,-1.468243,428965,435158,Y,,,,,Glass,1,,2,210,424,"1,077",148,572,486,415,966,368,68,756,516,,,"1,376","1,393",367,"4,168","6,938","4,669",301,246,340,68,,772,0,338,263,600,,0,319,119,312,0,2723,272
Rothwell Leisure Centre,Wakefield Road,LS26 8EL,Leisure Centre,Rothwell,Y,LS26,22215,72556215,53.744221,-1.451772,427678,436254,Y,Y,,,,"Glass, Paper",1,,3,262,"3,325","3,218","2,477","1,252","2,329","1,301","3,096","2,656","2,205","1,856","3,038","1,931","1,828","1,636","3,234","1,693",258,551,360,"2,361","2,197","2,668","3,084","2,319","2,771","2,829","1,786","4,242","1,810","2,203",622,"3,996","2,755","2,292","1,019",28644,"2,387"
Rothwell W.M.C,"Marsh Street,Rothwell",LS26 0BB,Social Club,Rothwell,Y,LS26,22216,72377468,53.748039,-1.477562,428090,434550,Y,,,,,Glass,1,,1,539,686,"1,237","1,284",995,"1,131",660,"4,041",797,887,525,966,"1,193",611,494,496,880,,,"1,369",604,"1,104",638,"1,053",778,428,8,355,826,333,632,"1,232",412,"1,168",655,,6826,621
Roundhay Park - Car Park,Princess Avenue,LS8 2ER,Car Park,Roundhay,Y,LS8,22217,72161903,53.837056,-1.504446,437981,432708,Y,,,,,Glass,1,,3,,"5,694","9,287","8,583","6,160","6,034","5,700","3,546","7,207","10,402","6,058","6,502",,,"5,151","7,260","5,090",382,752,623,"5,812","7,147","5,473","5,100","7,692","5,902","6,086","10,411","8,524","5,925","7,996","6,781","12,297","13,798","10,297","9,576",105284,"8,774"
Royal Armouries Museum,Armouries Drive,LS10 1LT,Business,City and Hunslet,Y,LS10,22219,72672535,53.789749,-1.532335,432705,430907,Y,,,,,Glass,1,,3,,384,250,,276,,,629,454,,,150,320,,855,264,,366,471,105,83,167,356,,90,,601,,,"1,786",0,,320,305,,,3102,517
Sainsburys,King Lane,LS17 5NY,Supermarket,Alwoodley,Y,LS17,22224,72505272,53.84409,-1.553836,438948,429702,Y,Y,Y,,,"Glass, Paper, Textiles",1,,10,"29,146","18,403","29,882","30,144","25,384","21,464","17,765","28,261","22,926","32,430","22,361","23,337","24,251","28,761","21,977","24,486","20,751","1,269","1,543","1,308","27,320","31,160",,"25,068","28,189","19,825","30,719","28,230","23,429","21,383","25,055","24,537","39,384","48,151","34,781","36,678",360361,"30,030"
Sainsburys,"11 Bondgate, Otley",LS21 3AB,Supermarket,Otley and Yeadon,Y,LS21,,72673452,53.902867,-1.692536,445233,420299,Y,Y,,,,"Glass, Paper",1,,4,,,,,,,,,,,,,,,,,,530,575,185,,292,,,,,360,,,,,,,,,,360,360
Scarcroft Golf Club,Syke Lane,LS14 3BQ,Sports Club,Harewood,Y,LS14,22226,72388841,53.873111,-1.453388,442017,436037,Y,,,,,Glass,1,,3,,"1,152",888,954,,"2,037",,"1,810",,"1,452",,,"2,184","1,141","1,068",925,786,,,"1,259","1,239",,,"1,595",,,"2,701","1,343",,,"1,845",,"1,285",730,0,,7904,"1,317"
Seacroft Village Hall,980 York Road,LS14 6JS,Community Centre,Killingbeck and Seacroft,,LS14,6,72241262,53.818413,-1.458353,435929,435757,Y,,,,,Glass,1,,1,,,,318,138,625,409,138,,508,539,154,,679,97,247,265,377,418,"1,655",620,177,520,,634,,900,276,743,,350,402,,,392,0,3697,462
Seacroft WMC,Ironwood View,LS14 6EW,Social Club,Killingbeck and Seacroft,Y,LS14,22230,72535235,53.814864,-1.468727,435529,435077,Y,,,,,Glass,1,,2,266,,517,159,630,675,818,206,366,592,434,385,,,237,582,492,256,,373,531,443,305,445,638,628,,368,"4,109",324,175,348,0,219,392,300,7501,682
Sheepscar WMC,Savile Drive,LS7 3EJ,Social Club,Chapel Allerton,Y,LS7,22232,72700327,53.813911,-1.538012,435391,430516,Y,,,,,Glass,1,,1,511,625,175,486,910,,"1,094",427,541,342,437,199,660,"1,008",312,514,481,,,,187,612,413,231,545,530,377,201,258,285,508,481,,435,215,284,4120,375
Sholebroke Mount,Chapeltown,LS7 3JG,Road Side,Chapel Allerton,,LS7,22233,72184850,53.819112,-1.538433,435969,430484,Y,,,,,Glass,1,,1,"1,357",668,900,838,"1,398",904,404,"1,072","1,597",287,747,434,682,446,796,338,519,,,,713,947,705,524,"1,216","1,255",704,952,786,714,"1,297",562,"2,289",991,695,"1,110",12569,"1,047"
South Leeds Conservative Club,"Wooler Street, Beeston",LS11 7JH,Social Club,Beeston and Holbeck,,LS11,22236,72237921,53.772184,-1.561869,430739,428974,Y,,,,,Glass,1,,2,,"1,431","1,785","1,066",487,"1,649",,188,"1,374",,"1,154",546,864,521,874,853,"1,077",,358,622,516,"1,136","1,270","1,021",,"1,364","3,790",782,914,,"1,168",654,,777,"3,115",764,13327,"1,481"
South Leeds Stadium,Middleton Grove,LS11 5DJ,Leisure Centre,Middleton Park,,LS11,22237,72687558,53.764302,-1.541939,429870,430293,Y,,,,,Glass,1,,1,,,,,,412,459,,,,,176,,,699,,,,,,,663,,278,,289,"2,809",637,270,,601,279,,,,93,4978,711
Sports Park Weetwood - University of Leeds,"Ring Road, Weetwood",LS16 5AU,Sports Club,Adel and Wharfedale,,LS16,23092,72578999,53.838932,-1.590692,438154,427031,Y,,,,,Glass,1,,,,,,,,,,,,,,,,,,,,,,,,,,,,,,,,,,,,,309,178,487,244
St Chads Parish Centre,"Otley Road, Far Headingley",LS16 5JT,Community Centre,Weetwood,,LS16,22240,72151740,53.828489,-1.584571,436994,427441,Y,,,,,Glass,1,,1,511,399,244,"1,295",758,475,,427,872,815,699,"1,067",623,495,549,736,551,,,,365,990,706,557,683,685,471,614,599,543,"4,084",786,888,"1,739","1,096","1,882",14070,"1,172"
St Gemmas Hospice,329 Harrogate Road,LS17 6QD,Business,Moortown,Y,LS17,22241,72202182,53.84405,-1.508954,438757,432406,Y,,,,,Glass,1,,1,727,,,,,,,,,658,,,,,,,,,,,730,,,,,,,,,,815,,,,,,815,815
St James the Great Church,Galloway lane,LS28 8JR,Place of Worship,Calverley and Farsley,,LS28,23129,72277675,53.801866,-1.69165,433996,420406,Y,,,,,Glass,1,,2,,,,,,,,,435,,,,,,,,,354,767,"1,133",,703,712,,729,"1,122",652,463,990,639,181,"1,059","2,700","1,702","1,015",820,12072,"1,006"
St. Helenas Caravan Park,Otley Old Road,LS18 5HZ,Caravan Park,Adel and Wharfedale,,LS18,22243,72271114,53.875007,-1.635596,442151,424056,Y,,,,,Glass,1,,1,375,"2,516","2,341",,588,594,"1,198",482,736,,512,347,538,330,569,339,551,,,,574,521,587,351,,750,592,,780,739,,576,254,375,,"1,129",5196,649
Station Garden (closed),Linton Road,LS22 6SD,Transport,Wetherby,Y,LS22,22245,72674919,53.930128,-1.396444,448391,439727,Y,,,,,Glass,1,,5,"3,304","2,426","6,760","12,579","5,610","6,424","9,148","3,982","8,248","7,885","7,320","5,475","5,673","3,898","10,388","9,112","3,402",706,707,738,"9,789","5,335","6,661","7,892","5,001","5,450","11,545","6,049","8,651","6,564","4,453",,"9,319","3,277","4,863","5,863",71036,"6,458"
Swarcliffe WMC,Swarcliffe Avenue,LS14 5HD,Social Club,Cross Gates and Whinmoor,Y,LS14,22252,72542047,53.820552,-1.446507,436173,436535,Y,,,,,Glass,1,,3,665,,197,"2,338",,"1,251",335,"1,377","1,276",930,"1,374","1,614",,"1,723","1,027","1,316","1,034","2,285","1,899","1,878","1,328",974,,"1,631","1,901",,"3,274","2,024",752,,"1,837",706,402,"1,658",960,"1,864",15376,"1,538"
Sweet Basil Valley formerly China Red,"Green Lane, Rawdon",LS19 7BY,Restaurant,Guiseley and Rawdon,Y,LS19,21954,72564759,53.857743,-1.687575,440214,420647,Y,,,,,Glass,1,,1,404,772,,458,,648,491,"1,082",264,624,249,"1,030",336,,545,169,678,,871,771,435,565,476,623,693,281,201,139,352,"1,290",494,436,249,306,222,305,4970,414
Swillington Miners Welfare Club,9 Wakefield Road. Swillington,LS26 8DT,Social Club,Garforth and Swillington,,LS26,22253,72329991,53.767035,-1.41963,430233,438353,Y,,,,,Glass,1,,1,314,,863,296,"1,467",872,656,497,673,726,530,569,,427,830,815,626,"23,475","24,781","15,672",581,575,679,"1,247",726,685,461,929,694,666,632,"1,402",883,649,312,996,9037,753
Swillington Social Club,"Astley Lane, Swilllington",LS26 8UE,Social Club,Garforth and Swillington,Y,LS26,22255,72329401,53.766185,-1.418535,430139,438426,Y,,,,,Glass,1,,1,,452,,443,,543,,,838,,,475,,,,769,,393,480,"1,051",,,570,,,,471,,,,,,,,,,471,471
Potternewton Depot,Potternewton Lane,LS7 3ND,Council Office,Chapel Allerton,,LS7,22162,72090746,53.825168,-1.534333,436645,430750,Y,,,,,Glass,1,,3,"3,311","3,003","4,976","2,908","4,898","1,561","1,815","2,686","2,957","7,573","4,764","3,870","4,569","4,800","4,954","3,768","4,468",,,,,"6,113","3,926","4,244",,"5,406","3,257","3,244","2,783","2,729","4,566","4,777","1,622",103,"3,663","3,708",35858,"3,260"
Temple Newsam Golf,"Temple Newsam Park Club House, Templenewsam Road, Halton",LS15 0LN,Business,Temple Newsam,Y,LS15,22260,72551547,53.791027,-1.472656,432875,434838,Y,,,,,Glass,1,,1,,644,195,437,904,,"1,439",362,262,,550,,,637,522,507,242,557,,550,88,708,175,638,362,307,597,0,167,,441,326,,719,196,,3116,346
Tescos,Aberford Road,LS25 2DX,Supermarket,Garforth and Swillington,Y,LS25,22261,72563522,53.797395,-1.383123,433631,440730,Y,Y,Y,,,"Glass, Paper and Textiles",1,,8,"11,701","12,473","17,995","11,594","17,552","16,090","11,844","17,972","13,873","17,140","10,199","15,972","13,256","13,745","17,486","11,596","17,266",570,418,494,"15,347","12,164","11,645","11,223","13,224","14,956","13,740","15,017","17,058","10,315","9,581","12,297","15,014","18,775","9,555","15,984",165516,"13,793"
Tescos,"Seacroft Green Shopping Centre, York Road",LS14 6JD,Supermarket,Killingbeck and Seacroft,Y,LS14,22262,72507829,53.821641,-1.460651,436287,435603,Y,Y,Y,,,"Glass, Paper and Textiles",1,,6,"14,921","13,628","11,960","13,014","11,925","22,521","11,321","12,937","17,042","20,086","9,889","14,592","13,446","14,930","14,178","13,544","15,130",639,180,626,"12,075","16,554","12,814","10,844","15,057","12,389","17,316","16,366","16,899","11,213","11,898","10,442","16,127","12,388","9,344","16,003",165440,"13,787"
Tescos,Roundhay Road,LS8 4BU,Supermarket,Roundhay,Y,LS8,22263,72175056,53.822693,-1.51089,436380,432295,Y,Y,Y,,,"Glass, Paper and Textiles",1,,12,"27,402","19,810","40,017","27,931","24,188","12,641","23,388","26,422","32,133","29,610","23,617","24,156","28,313","26,334","26,228","26,891","25,731",757,521,856,"25,930","32,383","23,912","23,139","31,980","21,929","30,003",,"26,609","22,542","25,794","21,875","27,656","24,090","16,266","24,722",273466,"24,861"
The Albion Pub,Clifford,LS23 6HU,Pub,Wetherby,Y,LS23,21904,72546748,53.896598,-1.349051,444688,442873,Y,,,,,Glass,1,,1,,426,179,,,438,73,,,,434,,161,,,532,,457,,630,707,,,509,,,321,632,,0,,260,,,,279,1492,298
